관리기관명,소재지도로명주소,소재지지번주소,설치목적구분,카메라대수,카메라화소수,촬영방면정보,보관일수,설치년월,관리기관전화번호,위도,경도,데이터기준일자
관악구청,서울특별시 관악구 쑥고개어린이공원 (쑥고개로2라길),서울특별시 관악구 쑥고개어린이공원 (서림동 1564-68),다목적,1,200,반경 30~150미터 이내(기종따라 다름),30,May-10,02-879-5831,37.47589054,126.9406859,2019-04-30
관악구청,서울특별시 관악구 쑥고개어린이공원 (쑥고개로2라길),서울특별시 관악구 쑥고개어린이공원 (서림동 1564-68),다목적,1,200,반경 30~150미터 이내(기종따라 다름),30,May-10,02-879-5831,37.47599585,126.9410376,2019-04-30
관악구청,서울특별시 관악구 백설어린이공원 (관악로6길 50),서울특별시 관악구 백설어린이공원 (낙성대동 1606-11),다목적,1,200,반경 30~150미터 이내(기종따라 다름),30,May-10,02-879-5831,37.47587787,126.9535853,2019-04-30
관악구청,서울특별시 관악구 백설어린이공원 (관악로6길 50),서울특별시 관악구 백설어린이공원 (낙성대동 1606-11),다목적,1,200,반경 30~150미터 이내(기종따라 다름),30,May-10,02-879-5831,37.47614016,126.9537496,2019-04-30
관악구청,서울특별시 관악구 신화어린이공원 (신림로31가길),서울특별시 관악구 신화어린이공원 (서림동 408-10),다목적,1,200,반경 30~150미터 이내(기종따라 다름),30,May-10,02-879-5831,37.47697373,126.9355708,2019-04-30
관악구청,서울특별시 관악구 봉림어린이공원 (남부순환로200다길 23),서울특별시 관악구 봉림어린이공원 (서원동 1510-2),다목적,1,130,반경 30~150미터 이내(기종따라 다름),30,May-10,02-879-5831,37.48272379,126.9356301,2019-04-30
관악구청,서울특별시 관악구 약수어린이공원 (낙성대역8길 28),서울특별시 관악구 약수어린이공원 (낙성대동 1510-19),다목적,1,200,반경 30~150미터 이내(기종따라 다름),30,May-10,02-879-5831,37.47404095,126.9621846,2019-04-30
관악구청,서울특별시 관악구 해태어린이공원 (서림3길 47),서울특별시 관악구 해태어린이공원 (서림동 103-141),다목적,1,200,반경 30~150미터 이내(기종따라 다름),30,May-10,02-879-5831,37.47250207,126.9404654,2019-04-30
관악구청,서울특별시 관악구 해태어린이공원 (서림3길 47),서울특별시 관악구 해태어린이공원 (서림동 103-141),다목적,1,200,반경 30~150미터 이내(기종따라 다름),30,May-10,02-879-5831,37.47268706,126.940696,2019-04-30
관악구청,서울특별시 관악구 광신길 154 합실어린이공원,서울특별시 관악구 삼성동 1704-4 합실어린이공원,다목적,1,200,반경 30~150미터 이내(기종따라 다름),30,May-10,02-879-5831,37.46508382,126.9268657,2019-04-30
관악구청,서울특별시 관악구 광신길 154 합실어린이공원,서울특별시 관악구 삼성동 1704-4 합실어린이공원,다목적,1,200,반경 30~150미터 이내(기종따라 다름),30,May-10,02-879-5831,37.4650273,126.9272175,2019-04-30
관악구청,서울특별시 관악구 미성동공원 (난우10가길 14-7),서울특별시 관악구 미성동공원 (미성동 597-4와 597-116),다목적,1,200,반경 30~150미터 이내(기종따라 다름),30,May-10,02-879-5831,37.47624854,126.9194839,2019-04-30
관악구청,서울특별시 관악구 미성동공원 (난우10가길 14-7),서울특별시 관악구 미성동공원 (미성동 597-4와 597-119),다목적,1,200,반경 30~150미터 이내(기종따라 다름),30,May-10,02-879-5831,37.47641056,126.9199238,2019-04-30
관악구청,서울특별시 관악구 색동공원 (신림로70길 74),서울특별시 관악구 색동공원 (신림동 1418-1와 1414-34),다목적,1,200,반경 30~150미터 이내(기종따라 다름),30,May-10,02-879-5831,37.48645833,126.9329445,2019-04-30
관악구청,서울특별시 관악구 상록공원 (승방3나길14 와 승방3가길 10),서울특별시 관악구 상록공원 (남현동 602-196와 602-186),다목적,1,130,반경 30~150미터 이내(기종따라 다름),30,May-10,02-879-5831,37.4729871,126.9802197,2019-04-30
관악구청,서울특별시 관악구 상록공원 (승방3나길14 와 승방3가길 10),서울특별시 관악구 상록공원 (남현동 602-196와 602-203),다목적,1,200,반경 30~150미터 이내(기종따라 다름),30,May-10,02-879-5831,37.47286864,126.9803893,2019-04-30
관악구청,서울특별시 관악구 새싹공원 (양녕로6다길 11-4),서울특별시 관악구 새싹공원 (중앙동 1512-9),다목적,1,200,반경 30~150미터 이내(기종따라 다름),30,May-10,02-879-5831,37.48438305,126.9497668,2019-04-30
관악구청,서울특별시 관악구 새싹공원 (양녕로6다길 11-4),서울특별시 관악구 새싹공원 (중앙동 1512-9),다목적,1,200,반경 30~150미터 이내(기종따라 다름),30,May-10,02-879-5831,37.48457844,126.949539,2019-04-30
관악구청,서울특별시 관악구 밤골공원 (인헌3가길 8),서울특별시 관악구 밤골공원 (인헌동 1642-4와 1643-10),다목적,1,200,반경 30~150미터 이내(기종따라 다름),30,May-10,02-879-5831,37.47395933,126.9673659,2019-04-30
관악구청,서울특별시 관악구 청룡공원 (청룡12길 17-4),서울특별시 관악구 청룡공원 (청룡동 1557-34와 1557-12),다목적,1,200,반경 30~150미터 이내(기종따라 다름),30,May-10,02-879-5831,37.47777622,126.9447741,2019-04-30
관악구청,서울특별시 관악구 보명공원 (법원단지길 158-11),서울특별시 관악구 보명공원 (난곡동 610-288와 610-297),다목적,1,200,반경 30~150미터 이내(기종따라 다름),30,May-10,02-879-5831,37.47575066,126.9257524,2019-04-30
관악구청,서울특별시 관악구 보명공원 (법원단지길 158-11),서울특별시 관악구 보명공원 (난곡동 610-288와 610-306),다목적,1,200,반경 30~150미터 이내(기종따라 다름),30,May-10,02-879-5831,37.47545839,126.9256939,2019-04-30
관악구청,서울특별시 관악구 국지어린이공원 (국회단지19길 23),서울특별시 관악구 국지어린이공원 (은천동 635-429),다목적,1,200,반경 30~150미터 이내(기종따라 다름),30,Jan-11,02-879-5831,37.48995297,126.9405815,2019-04-30
관악구청,서울특별시 관악구 국지어린이공원 (국회단지19길 23),서울특별시 관악구 국지어린이공원 (은천동 635-429),다목적,1,200,반경 30~150미터 이내(기종따라 다름),30,Jan-11,02-879-5831,37.49009773,126.9404468,2019-04-30
관악구청,서울특별시 관악구 원당어린이공원 (남부순환로246라길 3),서울특별시 관악구 원당어린이공원 (인헌동 196-2),다목적,1,200,반경 30~150미터 이내(기종따라 다름),30,Jan-11,02-879-5831,37.47464617,126.9637102,2019-04-30
관악구청,서울특별시 관악구 원당어린이공원 (남부순환로246라길 3),서울특별시 관악구 원당어린이공원 (인헌동 196-2),다목적,1,200,반경 30~150미터 이내(기종따라 다름),30,Jan-11,02-879-5831,37.47482758,126.9634234,2019-04-30
관악구청,서울특별시 관악구 예촌어린이공원 (남현길 41),서울특별시 관악구 예촌어린이공원 (남현동 1083-1),다목적,1,200,반경 30~150미터 이내(기종따라 다름),30,Jan-11,02-879-5831,37.47474442,126.9768983,2019-04-30
관악구청,서울특별시 관악구 예촌어린이공원 (남현길 41),서울특별시 관악구 예촌어린이공원 (남현동 1083-1),다목적,1,200,반경 30~150미터 이내(기종따라 다름),30,Jan-11,02-879-5831,37.47446087,126.9765527,2019-04-30
관악구청,서울특별시 관악구 예촌어린이공원 (남현길 41),서울특별시 관악구 봉천어린이공원 (인헌동 1707-2),다목적,1,200,반경 30~150미터 이내(기종따라 다름),30,Feb-11,02-879-5831,37.46921408,126.9646514,2019-04-30
관악구청,서울특별시 관악구 새들어린이공원 (관천로22길 63),서울특별시 관악구 새들어린이공원 (신림동 1441-42),다목적,1,200,반경 30~150미터 이내(기종따라 다름),30,Feb-11,02-879-5831,37.48860748,126.925629,2019-04-30
관악구청,서울특별시 관악구 새들어린이공원 (관천로22길 63),서울특별시 관악구 새들어린이공원 (신림동 1441-42),다목적,1,200,반경 30~150미터 이내(기종따라 다름),30,Feb-11,02-879-5831,37.48864772,126.9259222,2019-04-30
관악구청,서울특별시 관악구 교체어린이공원 (낙성대역14가길 3),서울특별시 관악구 교체어린이공원 (인헌동 196-193와 196-76),다목적,1,200,반경 30~150미터 이내(기종따라 다름),30,Nov-11,02-879-5831,37.47348909,126.9641343,2019-04-30
관악구청,서울특별시 관악구 탑골공원 (낙성대역8길 50-8),서울특별시 관악구 탑골공원 (낙성대동 1510),다목적,1,200,반경 30~150미터 이내(기종따라 다름),30,Nov-11,02-879-5831,37.47447325,126.9611728,2019-04-30
관악구청,서울특별시 관악구 남부어린이공원 (남부순환로163가길 20),서울특별시 관악구 남부어린이공원 (신사동 484-32와 484-33),다목적,1,200,반경 30~150미터 이내(기종따라 다름),30,Nov-11,02-879-5831,37.48483226,126.9207072,2019-04-30
관악구청,서울특별시 관악구 남부어린이공원 (남부순환로163가길 20),서울특별시 관악구 남부어린이공원 (신사동 483-12와 483-15),다목적,1,200,반경 30~150미터 이내(기종따라 다름),30,Nov-11,02-879-5831,37.48507241,126.9204881,2019-04-30
관악구청,서울특별시 관악구 무궁화공원 (난곡로26길 69),서울특별시 관악구 무궁화공원 (난곡동 645-1),다목적,1,200,반경 30~150미터 이내(기종따라 다름),30,Nov-11,02-879-5831,37.4696018,126.9236499,2019-04-30
관악구청,서울특별시 관악구 송학어린이공원 (관악로15길 21),서울특별시 관악구 송학어린이공원1 (청룡동 877-19와 877-21),다목적,1,200,반경 30~150미터 이내(기종따라 다름),30,Dec-11,02-879-5831,37.48046347,126.9491287,2019-04-30
관악구청,서울특별시 관악구 비안어린이공원 (장군봉 7길 15-4),서울특별시 관악구 비안어린이공원 (청룡동 1530-14와 1529-2),다목적,1,200,반경 30~150미터 이내(기종따라 다름),30,Dec-11,02-879-5831,37.48063484,126.9401712,2019-04-30
관악구청,서울특별시 관악구 서원어린이공원 (서원3길 10),서울특별시 관악구 서원어린이공원 (서원동 409-26와 409-279),다목적,1,200,반경 30~150미터 이내(기종따라 다름),30,Dec-11,02-879-5831,37.47661507,126.9332997,2019-04-30
관악구청,서울특별시 관악구 청룡산공원 (청룡동 556-91),서울특별시 관악구 청룡산공원 (청룡동  556-91),다목적,1,200,반경 30~150미터 이내(기종따라 다름),30,Feb-12,02-879-5831,37.47727121,126.9493785,2019-04-30
관악구청,서울특별시 관악구 청룡산공원 (청룡동 556-91),서울특별시 관악구 청룡산공원 (청룡동  556-91),다목적,1,200,반경 30~150미터 이내(기종따라 다름),30,Feb-12,02-879-5831,37.47695176,126.9493817,2019-04-30
관악구청,서울특별시 관악구 까치어린이공원 (행운4길 2),서울특별시 관악구 까치어린이공원 (행운동 1678-1),다목적,1,130,반경 30~150미터 이내(기종따라 다름),30,May-12,02-879-5831,37.47984474,126.9593811,2019-04-30
관악구청,서울특별시 관악구 까치어린이공원 (행운4길 2),서울특별시 관악구 까치어린이공원 (행운동 1678-1),다목적,1,130,반경 30~150미터 이내(기종따라 다름),30,May-12,02-879-5831,37.4798474,126.9598386,2019-04-30
관악구청,서울특별시 관악구 신라창의어린이공원 (미성8길 3-20),서울특별시 관악구 신라창의어린이공원 (미성동 744-1),다목적,1,130,반경 30~150미터 이내(기종따라 다름),30,Aug-12,02-879-5831,37.47351263,126.9126731,2019-04-30
관악구청,서울특별시 관악구 국사봉어린이공원 (봉천로21길 67),서울특별시 관악구 국사봉어린이공원(보라매동 1511-5),다목적,1,130,반경 30~150미터 이내(기종따라 다름),30,Aug-12,02-879-5831,37.48996775,126.9342732,2019-04-30
관악구청,서울특별시 관악구 은천어린이공원 (국회단지10길 22),서울특별시 관악구 은천어린이공원(은천동 635-309),다목적,1,130,반경 30~150미터 이내(기종따라 다름),30,Aug-12,02-879-5831,37.48838569,126.9429586,2019-04-30
관악구청,서울특별시 관악구 한라어린이공원 (난곡로43길 25),서울특별시 관악구 한라어린이공원(미성동 750-39),다목적,1,130,반경 30~150미터 이내(기종따라 다름),30,Aug-12,02-879-5831,37.47566349,126.9148401,2019-04-30
관악구청,서울특별시 관악구 관악산공원 돌산화장실앞,서울특별시 관악구 관악산공원 돌산화장실앞,다목적,1,130,반경 30~150미터 이내(기종따라 다름),30,Oct-12,02-879-5831,37.46667239,126.9470937,2019-04-30
관악구청,서울특별시 관악구 대학동 203,서울특별시 관악구 대학동 관악산공원 호수공원 01,다목적,1,130,반경 30~150미터 이내(기종따라 다름),30,Oct-12,02-879-5831,37.45853189,126.946999,2019-04-30
관악구청,서울특별시 관악구 대학동 203,서울특별시 관악구 대학동 관악산공원 호수공원 02,다목적,1,130,반경 30~150미터 이내(기종따라 다름),30,Oct-12,02-879-5831,37.45887887,126.947301,2019-04-30
관악구청,서울특별시 관악구 맨발공원(대학동 208),서울특별시 관악구 맨발공원(대학동 208),다목적,1,130,반경 30~150미터 이내(기종따라 다름),30,Oct-12,02-879-5831,37.46685449,126.9443101,2019-04-30
관악구청,서울특별시 관악구 샘말공원01 (대학길 129),서울특별시 관악구 샘말공원01(대학동 산 63-1),다목적,1,130,반경 30~150미터 이내(기종따라 다름),30,Oct-12,02-879-5831,37.46499971,126.938472,2019-04-30
관악구청,서울특별시 관악구 샘말공원02 (대학길 129),서울특별시 관악구 샘말공원02(대학동 산 63-1),다목적,1,130,반경 30~150미터 이내(기종따라 다름),30,Oct-12,02-879-5831,37.46455265,126.9380981,2019-04-30
관악구청,서울특별시 관악구 난곡공원01 (난곡로11길 40),서울특별시 관악구 난곡공원01(난향동 산 105-12),다목적,1,130,반경 30~150미터 이내(기종따라 다름),30,Oct-12,02-879-5831,37.46569065,126.9171947,2019-04-30
관악구청,서울특별시 관악구 난곡공원02 (난곡로11길 40),서울특별시 관악구 난곡공원02(난향동 산 105-12),다목적,1,130,반경 30~150미터 이내(기종따라 다름),30,Oct-12,02-879-5831,37.46595976,126.9172301,2019-04-30
관악구청,서울특별시 관악구 난우공원01 (법원단지5나길 76),서울특별시 관악구 난우공원01(미성동 산 124-6),다목적,1,130,반경 30~150미터 이내(기종따라 다름),30,Oct-12,02-879-5831,37.47739069,126.922718,2019-04-30
관악구청,서울특별시 관악구 난우공원02 (법원단지5나길 76),서울특별시 관악구 난우공원02(미성동 산 124-6),다목적,1,130,반경 30~150미터 이내(기종따라 다름),30,Oct-12,02-879-5831,37.47771547,126.9221625,2019-04-30
관악구청,서울특별시 관악구 선우공원01(미성동 산 117-3),서울특별시 관악구 선우공원01(미성동 산 117-3),다목적,1,130,반경 30~150미터 이내(기종따라 다름),30,Oct-12,02-879-5831,37.46879472,126.9130441,2019-04-30
관악구청,서울특별시 관악구 선우공원01(미성동 산 117-3),서울특별시 관악구 선우공원02(미성동 산 117-3),다목적,1,130,반경 30~150미터 이내(기종따라 다름),30,Oct-12,02-879-5831,37.46663318,126.9140531,2019-04-30
관악구청,서울특별시 관악구 신림6배수지공원01 (난곡로26길 135),서울특별시 관악구 신림6배수지공원01(삼성동 336-8),다목적,1,130,반경 30~150미터 이내(기종따라 다름),30,Oct-12,02-879-5831,37.46823737,126.9264493,2019-04-30
관악구청,서울특별시 관악구 신림6배수지공원02 (난곡로26길 135),서울특별시 관악구 신림6배수지공원02(삼성동 336-8),다목적,1,130,반경 30~150미터 이내(기종따라 다름),30,Oct-12,02-879-5831,37.46833633,126.9259133,2019-04-30
관악구청,서울특별시 관악구 봉천11배수지공원 (인헌길 169-21),서울특별시 관악구 봉천11배수지공원(인헌동 산3-8),다목적,1,130,반경 30~150미터 이내(기종따라 다름),30,Oct-12,02-879-5831,37.46909557,126.969963,2019-04-30
관악구청,서울특별시 관악구 배수지공원(삼성동 1713-6),서울특별시 관악구 2-1배수지공원(삼성동 1713-6),다목적,1,130,반경 30~150미터 이내(기종따라 다름),30,Oct-12,02-879-5831,37.46331438,126.9272212,2019-04-30
관악구청,서울특별시 관악구 상도근린공원01(보라매동 산104-9),서울특별시 관악구 상도근린공원01(보라매동 산104-9),다목적,1,130,반경 30~150미터 이내(기종따라 다름),30,Oct-12,02-879-5831,37.48890915,126.9381012,2019-04-30
관악구청,서울특별시 관악구 상도근린공원02(보라매동 산104-9),서울특별시 관악구 상도근린공원02(보라매동 산104-9),다목적,1,130,반경 30~150미터 이내(기종따라 다름),30,Oct-12,02-879-5831,37.48935129,126.9379689,2019-04-30
관악구청,서울특별시 관악구 상도근린공원03(보라매동 산104-9),서울특별시 관악구 상도근린공원03(보라매동 산104-9),다목적,1,130,반경 30~150미터 이내(기종따라 다름),30,Oct-12,02-879-5831,37.48929225,126.938343,2019-04-30
관악구청,서울특별시 관악구 중앙공원01(봉천로41길 35),서울특별시 관악구 중앙공원01(중앙동 890-1),다목적,1,130,반경 30~150미터 이내(기종따라 다름),30,Oct-12,02-879-5831,37.48438674,126.9484749,2019-04-30
관악구청,서울특별시 관악구 중앙공원02(봉천로41길 35),서울특별시 관악구 중앙공원02(중앙동 890-1),다목적,1,130,반경 30~150미터 이내(기종따라 다름),30,Oct-12,02-879-5831,37.48430156,126.9481866,2019-04-30
관악구청,서울특별시 관악구 관악산공원 주차장1 (대학동 210),서울특별시 관악구 관악산공원 주차장1,다목적,1,200,반경 30~150미터 이내(기종따라 다름),30,Nov-12,02-879-5831,37.46831654,126.9456034,2019-04-30
관악구청,서울특별시 관악구 관악산공원 주차장1 (대학동 210),서울특별시 관악구 관악산공원 주차장2,다목적,1,200,반경 30~150미터 이내(기종따라 다름),30,Nov-12,02-879-5831,37.46824624,126.945476,2019-04-30
관악구청,서울특별시 관악구 관악산공원 피크닉숲 (대학동 210),서울특별시 관악구 관악산공원 피크닉숲,다목적,1,200,반경 30~150미터 이내(기종따라 다름),30,Nov-12,02-879-5831,37.46185796,126.9479584,2019-04-30
관악구청,서울특별시 관악구 관악산공원 야외식물원 (대학동 210),서울특별시 관악구 관악산공원 야외식물원,다목적,1,200,반경 30~150미터 이내(기종따라 다름),30,Nov-12,02-879-5831,37.4609092,126.9481996,2019-04-30
관악구청,서울특별시 관악구 관악산공원 제1야영장 (대학동 210),서울특별시 관악구 관악산공원 제1야영장,다목적,2,200,반경 30~150미터 이내(기종따라 다름),30,Nov-12,02-879-5831,37.45796926,126.9464133,2019-04-30
관악구청,서울특별시 관악구 남부순환로234길 73 (봉천동),서울특별시 관악구 삼성동 관악산공원 제2야영장,다목적,1,200,반경 30~150미터 이내(기종따라 다름),30,Nov-12,02-879-5831,37.47609607,126.956289,2019-04-30
관악구청,서울특별시 관악구 장군봉근린공원1(메인청룡동 산151-139),서울특별시 관악구 장군봉근린공원1(메인청룡동 산151-139),다목적,1,200,반경 30~150미터 이내(기종따라 다름),30,Nov-12,02-879-5831,37.47969721,126.9372032,2019-04-30
관악구청,서울특별시 관악구 장군봉근린공원2(서브청룡동 산151-139),서울특별시 관악구 장군봉근린공원2(서브청룡동 산151-139),다목적,1,200,반경 30~150미터 이내(기종따라 다름),30,Nov-12,02-879-5831,37.4798336,126.9363697,2019-04-30
관악구청,서울특별시 관악구 장군봉근린공원3(서브청룡동 산151-139),서울특별시 관악구 장군봉근린공원3(서브청룡동 산151-139),다목적,1,200,반경 30~150미터 이내(기종따라 다름),30,Nov-12,02-879-5831,37.48048489,126.9368633,2019-04-30
관악구청,서울특별시 관악구 양산어린이공원(양산길 21-2 ),서울특별시 관악구 양산어린이공원(삼성동 395-35),다목적,1,130,반경 30~150미터 이내(기종따라 다름),30,Nov-12,02-879-5831,37.47369949,126.9326583,2019-04-30
관악구청,서울특별시 관악구 군아파트어린이공원(승방1길 79),서울특별시 관악구 군아파트어린이공원(남현동 602-282),다목적,1,200,반경 30~150미터 이내(기종따라 다름),30,Jan-13,02-879-5831,37.47177181,126.9790536,2019-04-30
관악구청,서울특별시 관악구 한뼘동래공원 (봉천로33가길 19-10),서울특별시 관악구 한뼘동래공원(은천동 900-65),다목적,1,130,반경 30~150미터 이내(기종따라 다름),30,Jan-13,02-879-5831,37.48472219,126.9448623,2019-04-30
관악구청,서울특별시 관악구 상도근린공원 (당곡2길 112),서울특별시 관악구 상도근린공원(보라매동 산133-10),다목적,1,130,반경 30~150미터 이내(기종따라 다름),30,Jan-13,02-879-5831,37.49274898,126.9350922,2019-04-30
관악구청,서울특별시 관악구 남강창의어린이공원 (법원단지18길 31),서울특별시 관악구 남강창의어린이공원(난곡동 1678-9),다목적,1,130,반경 30~150미터 이내(기종따라 다름),30,Oct-13,02-879-5831,37.47331235,126.9236363,2019-04-30
관악구청,서울특별시 관악구 일삼별공원 농구코트(난곡동 산 90-2),서울특별시 관악구 일삼별공원 농구코트(난곡동 산 90-2),다목적,1,130,반경 30~150미터 이내(기종따라 다름),30,Nov-13,02-879-5831,37.4667325,126.9237165,2019-04-30
관악구청,서울특별시 관악구 관음사지구 둘레길화장실앞(남현동 산 65),서울특별시 관악구 관음사지구 둘레길화장실앞(남현동 산 65),다목적,1,130,반경 30~150미터 이내(기종따라 다름),30,Nov-13,02-879-5831,37.46985456,126.9778824,2019-04-30
관악구청,서울특별시 관악구 대학동 산 56-2,서울특별시 관악구 대학동 산 56-2 무장애 테크로드,다목적,1,130,반경 30~150미터 이내(기종따라 다름),30,Nov-13,02-879-5831,37.45641695,126.9461288,2019-04-30
관악구청,서울특별시 관악구 선우공원 생태지역 진입부 (미성동 산 117-3),서울특별시 관악구 선우공원 생태지역 진입부 (미성동 산 117-3),다목적,1,130,반경 30~150미터 이내(기종따라 다름),30,Nov-13,02-879-5831,37.46924978,126.9126727,2019-04-30
관악구청,서울특별시 관악구 신림근린공원 쉼터지역 (미성동 산 197-31),서울특별시 관악구 신림근린공원 쉼터지역 (미성동 산 197-31),다목적,1,130,반경 30~150미터 이내(기종따라 다름),30,Nov-13,02-879-5831,37.48097851,126.916495,2019-04-30
관악구청,서울특별시 관악구 신림근린공원 운동시설 (미성동 산 197-31),서울특별시 관악구 신림근린공원 운동시설 (미성동 산 197-31),다목적,1,200,반경 30~150미터 이내(기종따라 다름),30,Nov-13,02-879-5831,37.48021998,126.9158269,2019-04-30
관악구청,서울특별시 관악구 상도근린공원 약수터주변 (보라매동 산 118-6),서울특별시 관악구 상도근린공원 약수터주변 (보라매동 산 118-6),다목적,1,130,반경 30~150미터 이내(기종따라 다름),30,Nov-13,02-879-5831,37.49183062,126.9362613,2019-04-30
관악구청,서울특별시 관악구 상도근린공원 맷돌체육회 (은천동 산 103-3),서울특별시 관악구 상도근린공원 맷돌체육회 (은천동 산 103-3),다목적,1,200,반경 30~150미터 이내(기종따라 다름),30,Nov-13,02-879-5831,37.49202819,126.9402673,2019-04-30
관악구청,서울특별시 관악구 상도근린공원 봉현배수지 (성현동 산 1718-9),서울특별시 관악구 상도근린공원 봉현배수지 (성현동 산 1718-9),다목적,1,130,반경 30~150미터 이내(기종따라 다름),30,Nov-13,02-879-5831,37.49312281,126.9453076,2019-04-30
관악구청,서울특별시 관악구 유아숲체험장 진입부분(청룡동 산 175-6),서울특별시 관악구 유아숲체험장 진입부분(청룡동 산 175-6),다목적,1,130,반경 30~150미터 이내(기종따라 다름),30,Nov-13,02-879-5831,37.47472773,126.9493561,2019-04-30
관악구청,서울특별시 관악구 유아숲체험장 숲속쉼터(청룡동 산 175-6),서울특별시 관악구 유아숲체험장 숲속쉼터(청룡동 산 175-6),다목적,1,200,반경 30~150미터 이내(기종따라 다름),30,Nov-13,02-879-5831,37.47469864,126.9482464,2019-04-30
관악구청,서울특별시 관악구 청룡산공원 휴게테크(청룡동 산 175-27),서울특별시 관악구 청룡산공원 휴게테크(청룡동 산 175-27),다목적,1,130,반경 30~150미터 이내(기종따라 다름),30,Nov-13,02-879-5831,37.47521741,126.9515644,2019-04-30
관악구청,서울특별시 관악구 청룡산공원 운동공간(청룡산 산 175-27),서울특별시 관악구 청룡산공원 운동공간(청룡산 산 175-27),다목적,1,130,반경 30~150미터 이내(기종따라 다름),30,Nov-13,02-879-5831,37.47535786,126.9510767,2019-04-30
관악구청,서울특별시 관악구 까치산근린공원 경로당 및 놀이터앞(남부순환로251길 20),서울특별시 관악구 까치산근린공원 경로당 및 놀이터앞(행운동 산 66-1),다목적,1,200,반경 30~150미터 이내(기종따라 다름),30,Nov-13,02-879-5831,37.47646946,126.9696306,2019-04-30
관악구청,서울특별시 관악구 까치산근린공원 화장실앞(남부순환로251길 20),서울특별시 관악구 까치산근린공원 화장실앞(행운동 산 66-1),다목적,1,130,반경 30~150미터 이내(기종따라 다름),30,Nov-13,02-879-5831,37.47648687,126.9701338,2019-04-30
관악구청,서울특별시 관악구 예촌어린이공원(남현길 41),서울특별시 관악구 예촌어린이공원(남현동 1083-1),다목적,1,130,반경 30~150미터 이내(기종따라 다름),30,Dec-13,02-879-5831,37.4746172,126.9766191,2019-04-30
관악구청,서울특별시 관악구 관악산공원 주차장 (신림로 23),서울특별시 관악구 관악산공원 주차장(대학동 210),다목적,1,130,반경 30~150미터 이내(기종따라 다름),30,Jan-14,02-879-5831,37.46829727,126.9452017,2019-04-30
관악구청,서울특별시 관악구 상도근린공원 (국회단지길 44),서울특별시 관악구 상도근린공원 (은천동 산103-61와 국사봉체육관),다목적,1,200,반경 30~150미터 이내(기종따라 다름),30,Apr-09,02-879-5831,37.49161877,126.9412047,2019-04-30
관악구청,서울특별시 관악구 상도근린공원 (국회단지길 44),서울특별시 관악구 상도근린공원 (은천동 산103-61와 국사봉체육관),다목적,1,200,반경 30~150미터 이내(기종따라 다름),30,Apr-09,02-879-5831,37.49132073,126.9410883,2019-04-30
관악구청,서울특별시 관악구 국회단지공원 (국회단지22길 14),서울특별시 관악구 국회단지공원 (은천동 635-37와 635-80),다목적,1,200,반경 30~150미터 이내(기종따라 다름),30,May-09,02-879-5831,37.49027227,126.9429346,2019-04-30
관악구청,서울특별시 관악구 국회단지공원 (국회단지22길 14),서울특별시 관악구 국회단지공원 (은천동 635-37와 635-80),다목적,1,200,반경 30~150미터 이내(기종따라 다름),30,May-09,02-879-5831,37.49017902,126.9433326,2019-04-30
관악구청,서울특별시 관악구 새숲공원 (조원로16가길 51),서울특별시 관악구 새숲공원 (조원동 539-14와 538-39),다목적,1,200,반경 30~150미터 이내(기종따라 다름),30,May-09,02-879-5831,37.48232389,126.9133282,2019-04-30
관악구청,서울특별시 관악구 새숲공원 (조원로16가길 51),서울특별시 관악구 새숲공원 (조원동 539-14와 539-13),다목적,1,200,반경 30~150미터 이내(기종따라 다름),30,May-09,02-879-5831,37.4825213,126.9129966,2019-04-30
관악구청,서울특별시 관악구 약수어린이공원 (미성10길 6),서울특별시 관악구 약수어린이공원 (미성동 1685와 1686),다목적,1,200,반경 30~150미터 이내(기종따라 다름),30,May-09,02-879-5831,37.47312225,126.9124201,2019-04-30
관악구청,서울특별시 관악구 미도공원 (난향길 77),서울특별시 관악구 미도공원 (난향동 675-200와 675-199),다목적,1,200,반경 30~150미터 이내(기종따라 다름),30,Dec-09,02-879-5831,37.46302346,126.9151922,2019-04-30
관악구청,서울특별시 관악구 미도공원 (난향길 77),서울특별시 관악구 미도공원 (난향동 675-200와 675-211),다목적,1,200,반경 30~150미터 이내(기종따라 다름),30,Dec-09,02-879-5831,37.46269776,126.9153715,2019-04-30
관악구청,서울특별시 관악구 호박골공원 (남부순환로 168길 22),서울특별시 관악구 호박골공원 (신원동 1580-22와 1580-25),다목적,1,200,반경 30~150미터 이내(기종따라 다름),30,Dec-09,02-879-5831,37.48189041,126.9240662,2019-04-30
관악구청,서울특별시 관악구 태양공원 (호암로22길 45),서울특별시 관악구 태양공원 (대학동 1542-1와 1542-2),다목적,1,200,반경 30~150미터 이내(기종따라 다름),30,Dec-09,02-879-5831,37.46844625,126.9365586,2019-04-30
관악구청,서울특별시 관악구 낙성대공원 관리사무소 (낙성대로 77),서울특별시 관악구 낙성대공원 관리사무소 (낙성대동 228),다목적,16,200,반경 30~150미터 이내(기종따라 다름),30,May-09,02-879-5831,37.47201433,126.9596751,2019-04-30
관악구청,서울특별시 관악구 남부순환로234길 73 (봉천동),서울특별시 관악구 삼성동 산불감시용 (연주대/삼성동),다목적,1,200,반경 30~150미터 이내(기종따라 다름),30,Mar-09,02-879-5831,37.47609607,126.956289,2019-04-30
관악구청,서울특별시 관악구 남부순환로234길 73 (봉천동),서울특별시 관악구 대학동 산불감시용 (모자봉/대학동),다목적,1,200,반경 30~150미터 이내(기종따라 다름),30,Mar-09,02-879-5831,37.47609607,126.956289,2019-04-30
관악구청,서울특별시 관악구 남부순환로234길 73 (봉천동),서울특별시 관악구 삼성동 산불감시용 (삼성산/삼성동),다목적,1,200,반경 30~150미터 이내(기종따라 다름),30,Mar-09,02-879-5831,37.47609607,126.956289,2019-04-30
관악구청,서울특별시 관악구 산불감시(서울대대학동),서울특별시 관악구 산불감시(서울대대학동),다목적,1,200,반경 30~150미터 이내(기종따라 다름),30,Mar-09,02-879-5831,37.46242012,126.9560942,2019-04-30
관악구청,서울특별시 관악구 장군봉소공원 (쑥고개로3길 7),서울특별시 관악구 장군봉소공원(서원동 94-252),다목적,1,200,반경 30~150미터 이내(기종따라 다름),30,Jun-14,02-879-5831,37.47815974,126.9389661,2019-04-30
관악구청,서울특별시 관악구 상도근린공원1(성현동 1712-6),서울특별시 관악구 상도근린공원1(성현동 1712-6),다목적,1,200,반경 30~150미터 이내(기종따라 다름),30,Sep-14,02-879-5831,37.49119516,126.9535998,2019-04-30
관악구청,서울특별시 관악구 당곡어린이공원 (봉천로19길 31),서울특별시 관악구 당곡어린이공원(보라매동 662-122),다목적,1,200,반경 30~150미터 이내(기종따라 다름),30,Sep-14,02-879-5831,37.48869889,126.9335906,2019-04-30
관악구청,서울특별시 관악구 고시자연공원(대학동 255-258),서울특별시 관악구 고시자연공원(대학동 255-258),다목적,1,200,반경 30~150미터 이내(기종따라 다름),30,Sep-14,02-879-5831,37.46414404,126.9353063,2019-04-30
관악구청,서울특별시 관악구 대협어린이공원 (문성로16길 26),서울특별시 관악구 대협어린이공원(미성동 746-32),다목적,1,200,반경 30~150미터 이내(기종따라 다름),30,Sep-14,02-879-5831,37.47479894,126.9133708,2019-04-30
관악구청,서울특별시 관악구 영락어린이공원 (청룡동 1555-16),서울특별시 관악구 영락어린이공원 (청룡동 1555-16),다목적,1,200,반경 30~150미터 이내(기종따라 다름),30,Sep-14,02-879-5831,37.47678062,126.9438504,2019-04-30
관악구청,서울특별시 관악구 인헌어린이공원 (낙성대역3길 28-11),서울특별시 관악구 인헌어린이공원(인헌동 196-240),다목적,1,200,반경 30~150미터 이내(기종따라 다름),30,Sep-14,02-879-5831,37.4754572,126.9625381,2019-04-30
관악구청,서울특별시 관악구 관악산둘레길광신고후문(난곡동 산87-14),서울특별시 관악구 관악산둘레길광신고후문(난곡동 산87-14),다목적,1,200,반경 30~150미터 이내(기종따라 다름),30,Aug-14,02-879-5831,37.46575933,126.9238244,2019-04-30
관악구청,서울특별시 관악구 선우공원03(미성동 산117-13),서울특별시 관악구 선우공원03(미성동 산117-13),다목적,1,200,반경 30~150미터 이내(기종따라 다름),30,Aug-14,02-879-5831,37.46968859,126.9125745,2019-04-30
관악구청,서울특별시 관악구 나들목공원 (신림로3가길 2),서울특별시 관악구 나들목공원(대학동 218-1),다목적,1,200,반경 30~150미터 이내(기종따라 다름),30,Nov-14,02-879-5831,37.4694056,126.9447193,2019-04-30
관악구청,서울특별시 관악구 나들목공원 (신림로3가길 2),서울특별시 관악구 나들목공원(대학동 218-1),다목적,1,200,반경 30~150미터 이내(기종따라 다름),30,Nov-14,02-879-5831,37.46896435,126.9442291,2019-04-30
관악구청,서울특별시 관악구 동네뒷산공원(대학동 산24-9),서울특별시 관악구 동네뒷산공원(대학동 산24-9),다목적,1,200,반경 30~150미터 이내(기종따라 다름),30,Dec-14,02-879-5831,37.46797618,126.9399623,2019-04-30
관악구청,서울특별시 관악구 동네뒷산공원(대학동 산24-9),서울특별시 관악구 동네뒷산공원(대학동 산24-9),다목적,1,200,반경 30~150미터 이내(기종따라 다름),30,Dec-14,02-879-5831,37.46786242,126.940353,2019-04-30
관악구청,서울특별시 관악구 문성어린이공원1 (문성로 120-5),서울특별시 관악구 문성어린이공원1(미성동 산 197-60),다목적,1,200,반경 30~150미터 이내(기종따라 다름),30,Jul-15,02-879-5831,37.47775617,126.9168432,2019-04-30
관악구청,서울특별시 관악구 문성어린이공원2 (난우12길 35-2),서울특별시 관악구 문성어린이공원2(미성동 산 197-102),다목적,1,200,반경 30~150미터 이내(기종따라 다름),30,Jul-15,02-879-5831,37.47768841,126.9188197,2019-04-30
관악구청,서울특별시 관악구 문성어린이공원3 (난우10가길 42),서울특별시 관악구 문성어린이공원3(미성동 597-47),다목적,1,200,반경 30~150미터 이내(기종따라 다름),30,Jul-15,02-879-5831,37.47772853,126.9197603,2019-04-30
관악구청,서울특별시 관악구 문성어린이소공원 (조원동 1661-15),서울특별시 관악구 문성어린이소공원 (조원동 1661-15),다목적,1,200,반경 30~150미터 이내(기종따라 다름),30,Jan-15,02-879-5831,37.48190677,126.9028852,2019-04-30
관악구청,서울특별시 관악구 장미어린이공원 (행운동 148-103),서울특별시 관악구 장미어린이공원 (행운동 148-103),다목적,1,200,반경 30~150미터 이내(기종따라 다름),30,Jan-15,02-879-5831,37.47922047,126.9623883,2019-04-30
관악구청,서울특별시 관악구 선봉어린이공원 (은천동 942-29),서울특별시 관악구 선봉어린이공원 (은천동 942-29),다목적,1,200,반경 30~150미터 이내(기종따라 다름),30,Jan-15,02-879-5831,37.48509822,126.9395461,2019-04-30
관악구청,서울특별시 관악구 해바라기어린이공원 (삼성동 321-5),서울특별시 관악구 해바라기어린이공원 (삼성동 321-5),다목적,1,200,반경 30~150미터 이내(기종따라 다름),30,Jan-15,02-879-5831,37.46195671,126.9303319,2019-04-30
관악구청,서울특별시 관악구 난우어린이공원 (미성동 1482-1),서울특별시 관악구 난우어린이공원 (미성동 1482-1),다목적,1,200,반경 30~150미터 이내(기종따라 다름),30,Jan-15,02-879-5831,37.48019649,126.9141403,2019-04-30
관악구청,서울특별시 관악구 난곡어린이공원 (미성동 1563-56),서울특별시 관악구 난곡어린이공원 (미성동 1563-56),다목적,1,200,반경 30~150미터 이내(기종따라 다름),30,Jan-15,02-879-5831,37.47403416,126.9152504,2019-04-30
관악구청,서울특별시 관악구 낙성대지구 (낙성대동 산56-3),서울특별시 관악구 낙성대지구 (낙성대동 산56-3),다목적,1,200,반경 30~150미터 이내(기종따라 다름),30,Sep-15,02-879-5831,37.47573516,126.9561031,2019-04-30
관악구청,서울특별시 관악구 관악산공원 (대학동 산32-23야외식물원 주변 둘레길 입구),서울특별시 관악구 관악산공원 (대학동 산32-23야외식물원 주변 둘레길 입구),다목적,1,200,반경 30~150미터 이내(기종따라 다름),30,Sep-15,02-879-5831,37.46353082,126.948072,2019-04-30
관악구청,서울특별시 관악구 난곡공원 (난향동 산105-12),서울특별시 관악구 난곡공원 (난향동 산105-12),다목적,1,200,반경 30~150미터 이내(기종따라 다름),30,Sep-15,02-879-5831,37.46575088,126.9172992,2019-04-30
관악구청,서울특별시 관악구 생태체험길 입구 (삼성동 산68-2),서울특별시 관악구 생태체험길 입구 (삼성동 산68-2),다목적,1,200,반경 30~150미터 이내(기종따라 다름),30,Sep-15,02-879-5831,37.46319264,126.9337484,2019-04-30
관악구청,서울특별시 관악구 관악로14가길 12(모래내공원1),서울특별시 관악구 모래내공원1(낙성대동 1613-19),다목적,1,200,반경 30~150미터 이내(기종따라 다름),30,Nov-15,02-879-5831,37.477904,126.9559184,2019-04-30
관악구청,서울특별시 관악구 관악로14가길 12(모래내공원2),서울특별시 관악구 모래내공원2(낙성대동 1613-19),다목적,1,200,반경 30~150미터 이내(기종따라 다름),30,Nov-15,02-879-5831,37.477904,126.9559184,2019-04-30
관악구청,서울특별시 관악구 문성어린이공원4(미성동 산 197-3),서울특별시 관악구 문성어린이공원4(미성동 산 197-3),다목적,1,200,반경 30~150미터 이내(기종따라 다름),30,Dec-15,02-879-5831,37.47774206,126.917656,2019-04-30
관악구청,서울특별시 관악구 난향동 산 102-12,서울특별시 관악구 난향동 산 102-12 안전한산책로1,다목적,1,200,반경 30~150미터 이내(기종따라 다름),30,Dec-15,02-879-5831,37.45766012,126.9185619,2019-04-30
관악구청,서울특별시 관악구 난향동 산 102-12,서울특별시 관악구 난향동 산 102-12 안전한산책로2,다목적,1,200,반경 30~150미터 이내(기종따라 다름),30,Dec-15,02-879-5831,37.45750048,126.9204326,2019-04-30
관악구청,서울특별시 관악구 낙성대야외놀이마당 (낙성대동 291-8),서울특별시 관악구 낙성대야외놀이마당 (낙성대동 291-8),다목적,1,200,반경 30~150미터 이내(기종따라 다름),30,Jun-16,02-879-5831,37.47393166,126.9599771,2019-04-30
관악구청,서울특별시 관악구 낙성대야외놀이마당 (낙성대동 287),서울특별시 관악구 낙성대야외놀이마당 (낙성대동 287),다목적,1,200,반경 30~150미터 이내(기종따라 다름),30,Jun-16,02-879-5831,37.47322103,126.9597055,2019-04-30
관악구청,서울특별시 관악구 봉천로23바길 13-25,서울특별시 관악구 학다리어린이공원 (보라매동 647-175),다목적,1,200,반경 30~150미터 이내(기종따라 다름),30,Jun-16,02-879-5831,37.4886632,126.937803,2019-04-30
관악구청,서울특별시 관악구 호암로20길 35,서울특별시 관악구 사우촌어린이공원 (대학동 1555-1),다목적,1,200,반경 30~150미터 이내(기종따라 다름),30,Jun-16,02-879-5831,37.46749117,126.9339752,2019-04-30
관악구청,서울특별시 관악구 호암로20길 84,서울특별시 관악구 미림어린이공원 (대학동 254-256),다목적,1,200,반경 30~150미터 이내(기종따라 다름),30,Jun-16,02-879-5831,37.4665869,126.9351175,2019-04-30
관악구청,서울특별시 관악구 쑥고개로26길 24,서울특별시 관악구 난우어린이공원 (난곡동 652-160),다목적,1,200,반경 30~150미터 이내(기종따라 다름),30,Jun-16,02-879-5831,37.4777833,126.9495141,2019-04-30
관악구청,서울특별시 관악구 난곡동 661-62,서울특별시 관악구 난곡동 661-6 동네뒷산공원,다목적,1,200,반경 30~150미터 이내(기종따라 다름),30,Dec-16,02-879-5831,37.46520229,126.9208191,2019-04-30
관악구청,서울특별시 관악구 남현동 496-3,서울특별시 관악구 관악산 등산로 입구 (남현동 496-3),다목적,1,200,반경 30~150미터 이내(기종따라 다름),30,Aug-17,02-879-5831,37.47103675,126.9724201,2019-04-30
관악구청,서울특별시 관악구 남현동 산55-5,서울특별시 관악구 생태육교 남쪽 (남현동 산55-5),다목적,1,200,반경 30~150미터 이내(기종따라 다름),30,Aug-17,02-879-5831,37.47521586,126.9708827,2019-04-30
관악구청,서울특별시 관악구 남현동 산57-47,서울특별시 관악구 관음사 주변 (남현동 산57-47),다목적,1,200,반경 30~150미터 이내(기종따라 다름),30,Aug-17,02-879-5831,37.46800499,126.9769017,2019-04-30
관악구청,서울특별시 관악구 대학동산52,서울특별시 관악구 무장애등산로2(대학동산52),다목적,1,200,반경 30~150미터 이내(기종따라 다름),30,Aug-17,02-879-5831,37.45652999,126.9471459,2019-04-30
관악구청,서울특별시 관악구 대학동산52,서울특별시 관악구 무장애등산로3(대학동산52),다목적,1,200,반경 30~150미터 이내(기종따라 다름),30,Aug-17,02-879-5831,37.45471388,126.948143,2019-04-30
관악구청,서울특별시 관악구 보라매동 산133-20,서울특별시 관악구 상도근린공원 (보라매동 산133-20),다목적,1,200,반경 30~150미터 이내(기종따라 다름),30,Aug-17,02-879-5831,37.49249498,126.9349524,2019-04-30
관악구청,서울특별시 관악구 성현동 1712-22,서울특별시 관악구 상도근린공원 유아숲체험장 (성현동 1712-22),다목적,1,200,반경 30~150미터 이내(기종따라 다름),30,Aug-17,02-879-5831,37.49365953,126.9483376,2019-04-30
관악구청,서울특별시 관악구 성현로 91,서울특별시 관악구 상도근린공원2 (성현동 1712-6),다목적,1,200,반경 30~150미터 이내(기종따라 다름),30,Aug-17,02-879-5831,37.4914491,126.9521079,2019-04-30
관악구청,서울특별시 관악구 남부순환로194길 81-12,서울특별시 관악구 장군봉근린공원 배드민턴장 01 (서원동 산 170-137),다목적,1,200,반경 30~150미터 이내(기종따라 다름),30,Aug-17,02-879-5831,37.48146698,126.9347725,2019-04-30
관악구청,서울특별시 관악구 은천동 산103-75,서울특별시 관악구 상도근린공원 국사봉체육관 (은천동 산103-75),다목적,1,200,반경 30~150미터 이내(기종따라 다름),30,Aug-17,02-879-5831,37.49195145,126.9414535,2019-04-30
관악구청,서울특별시 관악구 인헌동 산3-6,서울특별시 관악구 인헌자락공원 (인헌동 산3-6),다목적,1,200,반경 30~150미터 이내(기종따라 다름),30,Aug-17,02-879-5831,37.46813193,126.9701989,2019-04-30
관악구청,서울특별시 관악구 인헌길 169-6,서울특별시 관악구 군인APT 둘레길 (인헌동 180-255),다목적,1,200,반경 30~150미터 이내(기종따라 다름),30,Aug-17,02-879-5831,37.4684035,126.9695834,2019-04-30
관악구청,서울특별시 관악구 청림동 1706-2,서울특별시 관악구 까치산근린공원 (청림동 1706-2),다목적,1,200,반경 30~150미터 이내(기종따라 다름),30,Aug-17,02-879-5831,37.48512642,126.9622429,2019-04-30
관악구청,서울특별시 관악구 청룡동 산149-8,서울특별시 관악구 장군봉근린공원 북쪽등산로 입구 (청룡동 산149-8),다목적,1,200,반경 30~150미터 이내(기종따라 다름),30,Aug-17,02-879-5831,37.48147121,126.9366716,2019-04-30
관악구청,서울특별시 관악구 청룡동 1526-1,서울특별시 관악구 충효어린이공원 (청룡동 1526-1),다목적,1,200,반경 30~150미터 이내(기종따라 다름),30,Aug-17,02-879-5831,37.48116875,126.9413438,2019-04-30
관악구청,서울특별시 관악구 서원동 산1-270,서울특별시 관악구 장군봉근린공원 입구 (서원동 산1-270),다목적,1,200,반경 30~150미터 이내(기종따라 다름),30,Aug-17,02-879-5831,37.47893843,126.9390237,2019-04-30
관악구청,서울특별시 관악구 청룡동 877-21,서울특별시 관악구 송학어린이공원2 (청룡동 877-21),다목적,1,200,반경 30~150미터 이내(기종따라 다름),30,Aug-17,02-879-5831,37.48018588,126.9492618,2019-04-30
관악구청,서울특별시 관악구 남부순환로247길 26,서울특별시 관악구 까치산근린공원 미술고 뒤 (행운동 1690-172),다목적,1,200,반경 30~150미터 이내(기종따라 다름),30,Aug-17,02-879-5831,37.47676,126.9671283,2019-04-30
관악구청,서울특별시 관악구 행운동 산66-2,서울특별시 관악구 생태육교 북쪽 (행운동 산66-2),다목적,1,200,반경 30~150미터 이내(기종따라 다름),30,Aug-17,02-879-5831,37.47567532,126.9707322,2019-04-30
관악구청,서울특별시 관악구 행운동 100-2,서울특별시 관악구 까치산근린공원 (행운동 100-2),다목적,1,200,반경 30~150미터 이내(기종따라 다름),30,Aug-17,02-879-5831,37.48331417,126.9603182,2019-04-30
관악구청,서울특별시 관악구 행운동 산67-32,서울특별시 관악구 까치산근린공원4 (행운동 산67-32),다목적,1,200,반경 30~150미터 이내(기종따라 다름),30,Aug-17,02-879-5831,37.48025556,126.9649666,2019-04-30
관악구청,서울특별시 관악구 난향동산105-11,서울특별시 관악구 안전한산책로1(난향동산105-11),다목적,1,200,반경 30~150미터 이내(기종따라 다름),30,Aug-17,02-879-5831,37.45886082,126.917401,2019-04-30
관악구청,서울특별시 관악구 난향동산102-7,서울특별시 관악구 안전한산책로4(난향동산102-7),다목적,1,200,반경 30~150미터 이내(기종따라 다름),30,Aug-17,02-879-5831,37.45822172,126.9214658,2019-04-30
관악구청,서울특별시 관악구 난향동 1735-12,서울특별시 관악구 안전한산책로5 (난향동 1735-12),다목적,1,200,반경 30~150미터 이내(기종따라 다름),30,Aug-17,02-879-5831,37.45926819,126.9222609,2019-04-30
관악구청,서울특별시 관악구 미성동 산 117-20,서울특별시 관악구 선우공원04 (미성동 산 117-20),다목적,1,200,반경 30~150미터 이내(기종따라 다름),30,Aug-17,02-879-5831,37.46764592,126.913497,2019-04-30
관악구청,서울특별시 관악구 인헌동 산 29-4,서울특별시 관악구 관악산공원 (인헌동 산 29-4),다목적,1,200,반경 30~150미터 이내(기종따라 다름),30,Dec-17,02-879-5831,37.46831315,126.9638012,2019-04-30
관악구청,서울특별시 관악구 장군봉길 72,서울특별시 관악구 장군봉근린공원 (청룡동 1531-38 봉임중학교 후문앞),다목적,1,200,반경 30~150미터 이내(기종따라 다름),30,Dec-17,02-879-5831,37.4806354,126.9381183,2019-04-30
관악구청,서울특별시 관악구 낙성대동 232-2,서울특별시 관악구 낙성대공원 (낙성대동 232-2 반려견놀이터),다목적,1,200,반경 30~150미터 이내(기종따라 다름),30,Dec-17,02-879-5831,37.47081228,126.9592343,2019-04-30
관악구청,서울특별시 관악구 삼성동 336-8,서울특별시 관악구 대학동 210 화장실입구,다목적,1,200,반경 30~150미터 이내(기종따라 다름),30,Dec-17,02-879-5831,37.46802993,126.945548,2019-04-30
관악구청,서울특별시 관악구 관악산나들길 4,서울특별시 관악구 대학동 210 지하음식점입구,다목적,1,200,반경 30~150미터 이내(기종따라 다름),30,Dec-17,02-879-5831,37.46832312,126.9454603,2019-04-30
관악구청,서울특별시 관악구 청룡동 산 151-139,서울특별시 관악구 청룡동 산 151-139 장군봉 근린공원,다목적,1,200,반경 30~150미터 이내(기종따라 다름),30,Dec-17,02-879-5831,37.47959612,126.9375368,2019-04-30
관악구청,서울특별시 관악구 남현4길 10,서울특별시 관악구 남현동 1068-31 신앙촌상회 앞,다목적,1,200,반경 30~150미터 이내(기종따라 다름),30,Dec-17,02-879-5831,37.47525139,126.9763216,2019-04-30
관악구청,서울특별시 관악구 미성동 산 191-16,서울특별시 관악구 미성동 산 191-16 문성터널 위 등산로길,다목적,1,200,반경 30~150미터 이내(기종따라 다름),30,Dec-17,02-879-5831,37.47865536,126.9202411,2019-04-30
관악구청,서울특별시 관악구 미성동 산 197-5,서울특별시 관악구 미성동 산 197-5 문성터널 차량 출입로쪽 등산로길,다목적,1,200,반경 30~150미터 이내(기종따라 다름),30,Dec-17,02-879-5831,37.47843186,126.9186446,2019-04-30
관악구청,서울특별시 관악구 남부순환로152길 53,서울특별시 관악구 미성동 1707-1 호림박물관 옆 등산로길,다목적,1,200,반경 30~150미터 이내(기종따라 다름),30,Dec-17,02-879-5831,37.4806808,126.9186226,2019-04-30
관악구청,서울특별시 관악구 삼성동 산83,서울특별시 관악구 삼성동 산 83 등산로길,다목적,1,200,반경 30~150미터 이내(기종따라 다름),30,Dec-17,02-879-5831,37.46122913,126.9294463,2019-04-30
관악구청,서울특별시 관악구 신원동 산 159-33,서울특별시 관악구 신원동 산 159-33,다목적,1,200,반경 30~150미터 이내(기종따라 다름),30,Jun-18,02-879-5831,37.47625089,126.9254312,2019-04-30
관악구청,서울특별시 관악구 보라매동 산 104-1,서울특별시 관악구 보라매동 산 104-1,다목적,1,200,반경 30~150미터 이내(기종따라 다름),30,Jun-18,02-879-5831,37.48947201,126.9390212,2019-04-30
관악구청,서울특별시 관악구 청룡동 산 149-8,서울특별시 관악구 청룡동 산 149-8,다목적,1,200,반경 30~150미터 이내(기종따라 다름),30,Jun-18,02-879-5831,37.4807547,126.9356599,2019-04-30
관악구청,서울특별시 관악구 호암로 399,서울특별시 관악구 호암로 399(녹지연결로01),다목적,1,200,반경 30~150미터 이내(기종따라 다름),30,Jun-18,02-879-5831,37.4623828,126.9261771,2019-04-30
관악구청,서울특별시 관악구 호암로 399,서울특별시 관악구 호암로 399(녹지연결로02),다목적,1,200,반경 30~150미터 이내(기종따라 다름),30,Jun-18,02-879-5831,37.4623828,126.9261771,2019-04-30
관악구청,서울특별시 관악구 신사동 498(공원내1),서울특별시 관악구 신사동 498(공원내1),다목적,1,200,반경 30~150미터 이내(기종따라 다름),30,Apr-19,02-879-5831,37.48833012,126.9148808,2019-04-30
관악구청,서울특별시 관악구 신사동 498(공원내2),서울특별시 관악구 신사동 498(공원내2),다목적,2,200,반경 30~150미터 이내(기종따라 다름),30,Apr-19,02-879-5831,37.48623469,126.9113587,2019-04-30
관악구청,서울특별시 관악구 삼성동 산 57-14(삼성산성지),서울특별시 관악구 삼성동 산 57-14(삼성산성지),다목적,3,200,반경 30~150미터 이내(기종따라 다름),30,Apr-19,02-879-5831,37.45685298,126.9295683,2019-04-30
관악구청,서울특별시 관악구 청룡동 산175-40(청룡산공원입구),서울특별시 관악구 청룡동 산175-40(청룡산공원입구),다목적,3,200,반경 30~150미터 이내(기종따라 다름),30,Apr-19,02-879-5831,37.47649685,126.9509435,2019-04-30
관악구청,서울특별시 관악구 난곡동 655-104 (오성어린이공원),서울특별시 관악구 난곡동 655-104 (오성어린이공원),다목적,1,200,반경 30~150미터 이내(기종따라 다름),30,Apr-19,02-879-5831,37.46788994,126.9207614,2019-04-30
관악구청,서울특별시 관악구 신사동 501-30 (새빛어린이공원),서울특별시 관악구 신사동 501-30 (새빛어린이공원),다목적,1,200,반경 30~150미터 이내(기종따라 다름),30,Apr-19,02-879-5831,37.48624049,126.9152719,2019-04-30
관악구청,서울특별시 관악구 서림동 98-402 (서광어린이공원),서울특별시 관악구 서림동 98-402 (서광어린이공원),다목적,1,200,반경 30~150미터 이내(기종따라 다름),30,Apr-19,02-879-5831,37.47524952,126.9427937,2019-04-30
관악구청,서울특별시 관악구 삼성동 316-95 (약수암어린이공원),서울특별시 관악구 삼성동 316-95 (약수암어린이공원),다목적,1,200,반경 30~150미터 이내(기종따라 다름),30,Apr-19,02-879-5831,37.45928016,126.9329815,2019-04-30
관악구청,서울특별시 관악구 대학동 1716-1 (목화어린이공원),서울특별시 관악구 대학동 1716-1 (목화어린이공원),다목적,1,200,반경 30~150미터 이내(기종따라 다름),30,Apr-19,02-879-5831,37.46791457,126.942415,2019-04-30
관악구청,서울특별시 관악구 신림로70길 20,서울특별시 관악구 신림동 1426-1 와 1417-43,다목적,1,200,반경 30~150미터 이내(기종따라 다름),30,Dec-11,02-879-5831,37.4876373,126.9299576,2019-04-30
관악구청,서울특별시 관악구 청룡4길 49 관악초교 부근,서울특별시 관악구 청룡동 920와 918-13,다목적,5,200,반경 30~150미터 이내(기종따라 다름),30,Dec-11,02-879-5831,37.4808067,126.9428902,2019-04-30
관악구청,서울특별시 관악구 남부순환로246길 25,서울특별시 관악구 인헌동 1635-1와 1710-11 (은아유치원),다목적,5,200,반경 30~150미터 이내(기종따라 다름),30,Dec-11,02-879-5831,37.47520347,126.9644352,2019-04-30
관악구청,서울특별시 관악구 중앙길 105 신봉초교 부근,서울특별시 관악구 중앙동 458-113,다목적,4,130,반경 30~150미터 이내(기종따라 다름),30,Oct-12,02-879-5831,37.48611457,126.9495893,2019-04-30
관악구청,서울특별시 관악구 난곡로35길 68 삼성아트빌아파트 부근,서울특별시 관악구 난곡동 715-32,다목적,3,130,반경 30~150미터 이내(기종따라 다름),30,Oct-12,02-879-5831,37.47029117,126.9172112,2019-04-30
관악구청,서울특별시 관악구 남현2길 92,서울특별시 관악구 남현동 1071-24(은탁빌라앞),다목적,1,130,반경 30~150미터 이내(기종따라 다름),30,Oct-12,02-879-5831,37.4743795,126.9727435,2019-04-30
관악구청,서울특별시 관악구 난향동 1736-10(신림2차대우푸르지오108동앞),서울특별시 관악구 난향동 1736-10,다목적,3,130,반경 30~150미터 이내(기종따라 다름),30,Oct-12,02-879-5831,37.46214932,126.9190691,2019-04-30
관악구청,서울특별시 관악구 난곡로 42 GS슈퍼마켓 부근,서울특별시 관악구 난향동 1735-9,다목적,3,130,반경 30~150미터 이내(기종따라 다름),30,Oct-12,02-879-5831,37.4605336,126.9206196,2019-04-30
관악구청,서울특별시 관악구 은천로 69 은천초교 부근,서울특별시 관악구 은천동 622-1,다목적,3,130,반경 30~150미터 이내(기종따라 다름),30,Oct-12,02-879-5831,37.4868591,126.9429033,2019-04-30
관악구청,서울특별시 관악구 서림길 40,서울특별시 관악구 서림동 105-120(동작하이퍼마켓 맞은편),다목적,3,130,반경 30~150미터 이내(기종따라 다름),30,Oct-12,02-879-5831,37.4742952,126.9381126,2019-04-30
관악구청,서울특별시 관악구 남현6길 13,서울특별시 관악구 남현동 1082-33,다목적,1,130,반경 30~150미터 이내(기종따라 다름),30,Jan-13,02-879-5831,37.4741735,126.9754554,2019-04-30
관악구청,서울특별시 관악구 양녕로2가길 25,서울특별시 관악구 중앙동 889-4,다목적,5,130,반경 30~150미터 이내(기종따라 다름),30,Jan-13,02-879-5831,37.4845087,126.9471822,2019-04-30
관악구청,서울특별시 관악구 신림로28길 81,서울특별시 관악구 서림동 119-11,다목적,4,130,반경 30~150미터 이내(기종따라 다름),30,Jan-13,02-879-5831,37.4719919,126.9377812,2019-04-30
관악구청,서울특별시 관악구 신림로18길 17,서울특별시 관악구 서림동 117-1,다목적,1,130,반경 30~150미터 이내(기종따라 다름),30,Jan-13,02-879-5831,37.4718574,126.9361574,2019-04-30
관악구청,서울특별시 관악구 난향3길 26,서울특별시 관악구 난향동 673-46,다목적,1,130,반경 30~150미터 이내(기종따라 다름),30,Jan-13,02-879-5831,37.4621997,126.916584,2019-04-30
관악구청,서울특별시 관악구 남현4길 27,서울특별시 관악구 남현동 1081-1,다목적,5,130,반경 30~150미터 이내(기종따라 다름),30,Nov-13,02-879-5831,37.4749101,126.9752928,2019-04-30
관악구청,서울특별시 관악구 남부순환로144길 65,서울특별시 관악구 미성동 1478-31,다목적,1,130,반경 30~150미터 이내(기종따라 다름),30,Nov-13,02-879-5831,37.47838,126.9134662,2019-04-30
관악구청,서울특별시 관악구 난우길 40,서울특별시 관악구 미성동 589-1,다목적,5,130,반경 30~150미터 이내(기종따라 다름),30,Nov-13,02-879-5831,37.47698843,126.9178433,2019-04-30
관악구청,서울특별시 관악구 난우12길 22,서울특별시 관악구 미성동 596-18,다목적,1,130,반경 30~150미터 이내(기종따라 다름),30,Nov-13,02-879-5831,37.4769663,126.918485,2019-04-30
관악구청,서울특별시 관악구 미성길 127,서울특별시 관악구 미성동 733,다목적,1,130,반경 30~150미터 이내(기종따라 다름),30,Nov-13,02-879-5831,37.47179,126.91228,2019-04-30
관악구청,서울특별시 관악구 당곡길 36,서울특별시 관악구 보라매동 711-4,다목적,1,130,반경 30~150미터 이내(기종따라 다름),30,Nov-13,02-879-5831,37.4908832,126.928897,2019-04-30
관악구청,서울특별시 관악구 보라매로 38,서울특별시 관악구 보라매동 728-72,다목적,2,130,반경 30~150미터 이내(기종따라 다름),30,Nov-13,02-879-5831,37.4927052,126.9270221,2019-04-30
관악구청,서울특별시 관악구 봉천로 275,서울특별시 관악구 보라매동 968-44,다목적,4,130,반경 30~150미터 이내(기종따라 다름),30,Nov-13,02-879-5831,37.48799776,126.9319618,2019-04-30
관악구청,서울특별시 관악구 관악로 285,서울특별시 관악구 성현동 1703,다목적,4,130,반경 30~150미터 이내(기종따라 다름),30,Nov-13,02-879-5831,37.48939104,126.9554445,2019-04-30
관악구청,서울특별시 관악구 양녕로 74 구암초교 부근,서울특별시 관악구 성현동 492-26,다목적,4,130,반경 30~150미터 이내(기종따라 다름),30,Nov-13,02-879-5831,37.4883794,126.946662,2019-04-30
관악구청,서울특별시 관악구 문성로30길 29,서울특별시 관악구 신원동 1629-91,다목적,1,130,반경 30~150미터 이내(기종따라 다름),30,Nov-13,02-879-5831,37.4779716,126.9283453,2019-04-30
관악구청,서울특별시 관악구 청림3길 29,서울특별시 관악구 청림동 8-11,다목적,1,130,반경 30~150미터 이내(기종따라 다름),30,Nov-13,02-879-5831,37.48935255,126.9586196,2019-04-30
관악구청,서울특별시 관악구 솔밭로 21,서울특별시 관악구 행운동 148-63,다목적,3,130,반경 30~150미터 이내(기종따라 다름),30,Nov-13,02-879-5831,37.47943617,126.9633737,2019-04-30
관악구청,서울특별시 관악구 봉천로 497,서울특별시 관악구 행운동 1667-55,다목적,1,130,반경 30~150미터 이내(기종따라 다름),30,Nov-13,02-879-5831,37.48125077,126.9552461,2019-04-30
관악구청,서울특별시 관악구 행운1길71,서울특별시 관악구 행운동 1668-24,다목적,1,130,반경 30~150미터 이내(기종따라 다름),30,Nov-13,02-879-5831,37.4817577,126.9564021,2019-04-30
관악구청,서울특별시 관악구 은천로24길 26,서울특별시 관악구 중앙동 459-58,다목적,5,200,반경 30~150미터 이내(기종따라 다름),30,Jan-14,02-879-5831,37.48571725,126.947981,2019-04-30
관악구청,서울특별시 관악구 호암로 498,서울특별시 관악구 삼성동 315와 1724사이,다목적,1,200,반경 30~150미터 이내(기종따라 다름),30,Jan-14,02-879-5831,37.4626215,126.9323353,2019-04-30
관악구청,서울특별시 관악구 당곡2가길 11,서울특별시 관악구 보라매동 712-3,다목적,3,200,반경 30~150미터 이내(기종따라 다름),30,Jan-14,02-879-5831,37.49118772,126.929612,2019-04-30
관악구청,서울특별시 관악구 청림5길 22 은비유치원 부근,서울특별시 관악구 청림동 1717-2 (은비유치원),다목적,4,200,반경 30~150미터 이내(기종따라 다름),30,Oct-14,02-879-5831,37.4890517,126.9600953,2019-04-30
관악구청,서울특별시 관악구 남부순환로 1761 남서울유치원 부근,서울특별시 관악구 중앙동 912-18 (남서울유치원),다목적,5,200,반경 30~150미터 이내(기종따라 다름),30,Oct-14,02-879-5831,37.4822093,126.9459775,2019-04-30
관악구청,서울특별시 관악구 행운1라길 8,서울특별시 관악구 행운동 65-6 (동원유치원),다목적,1,200,반경 30~150미터 이내(기종따라 다름),30,Oct-14,02-879-5831,37.4829328,126.9567428,2019-04-30
관악구청,서울특별시 관악구 은천로25길 69 새소슬유치원 부근,서울특별시 관악구 성현동 480-3 (새소슬유치원),다목적,4,200,반경 30~150미터 이내(기종따라 다름),30,Oct-14,02-879-5831,37.48909092,126.9483289,2019-04-30
관악구청,서울특별시 관악구 구암길 65 소슬유치원 부근,서울특별시 관악구 성현동 산 101-75 (소슬유치원),다목적,3,200,반경 30~150미터 이내(기종따라 다름),30,Oct-14,02-879-5831,37.49059124,126.9477456,2019-04-30
관악구청,서울특별시 관악구 청림5길 87,서울특별시 관악구 청림동 1-783 (현대유치원),다목적,1,200,반경 30~150미터 이내(기종따라 다름),30,Oct-14,02-879-5831,37.4917093,126.9595138,2019-04-30
관악구청,서울특별시 관악구 광신길 111,서울특별시 관악구 삼성동 1714-3 (구립합실어린이집),다목적,1,200,반경 30~150미터 이내(기종따라 다름),30,Oct-14,02-879-5831,37.463949,126.9255115,2019-04-30
관악구청,서울특별시 관악구 호암로 545 미림어린이집 부근,서울특별시 관악구 삼성동 300-6 (구립미림어린이집),다목적,4,200,반경 30~150미터 이내(기종따라 다름),30,Oct-14,02-879-5831,37.4664376,126.9311665,2019-04-30
관악구청,서울특별시 관악구 양녕로2가길 41,서울특별시 관악구 중앙동 888-12 (예대어린이집),다목적,5,200,반경 30~150미터 이내(기종따라 다름),30,Oct-14,02-879-5831,37.4852523,126.947208,2019-04-30
관악구청,서울특별시 관악구 난곡로35길 102,서울특별시 관악구 난곡동 711-136 (난곡초등학교),다목적,1,200,반경 30~150미터 이내(기종따라 다름),30,Oct-14,02-879-5831,37.4692357,126.9166531,2019-04-30
관악구청,서울특별시 관악구 관악로 461,서울특별시 관악구 청룡동 1570-1 청룡병설유치원,다목적,4,200,반경 30~150미터 이내(기종따라 다름),30,Jan-15,02-879-5831,37.47780671,126.9511981,2019-04-30
관악구청,서울특별시 관악구 낙성대역길 105,서울특별시 관악구 인헌동 196-38 예일유치원(인헌초 후문),다목적,5,200,반경 30~150미터 이내(기종따라 다름),30,Jan-15,02-879-5831,37.4741488,126.9645824,2019-04-30
관악구청,서울특별시 관악구 남부순환로 256길 46,서울특별시 관악구 남현동 1071-15 사당초등학교,다목적,4,200,반경 30~150미터 이내(기종따라 다름),30,Jan-15,02-879-5831,37.4737231,126.9730852,2019-04-30
관악구청,서울특별시 관악구 남현2길 65-7,서울특별시 관악구 남현동 1069-21 사당초등학교,다목적,3,200,반경 30~150미터 이내(기종따라 다름),30,Jan-15,02-879-5831,37.4750282,126.9741416,2019-04-30
관악구청,서울특별시 관악구 봉천로 505,서울특별시 관악구 행운동 1669-1 원당병설유치원,다목적,4,200,반경 30~150미터 이내(기종따라 다름),30,Jan-15,02-879-5831,37.4811753,126.9560764,2019-04-30
관악구청,서울특별시 관악구 행운1라길 29,서울특별시 관악구 행운동 66-169 봉천병설유치원,다목적,3,200,반경 30~150미터 이내(기종따라 다름),30,Jan-15,02-879-5831,37.4826087,126.9573305,2019-04-30
관악구청,서울특별시 관악구 국회단지길 6-7,서울특별시 관악구 은천동 940-21 은천병설유치원,다목적,3,200,반경 30~150미터 이내(기종따라 다름),30,Jan-15,02-879-5831,37.48644079,126.939781,2019-04-30
관악구청,서울특별시 관악구 청룡2길 35-8,서울특별시 관악구 청룡동 921-41 관악병설유치원,다목적,4,200,반경 30~150미터 이내(기종따라 다름),30,Jan-15,02-879-5831,37.48114,126.9439902,2019-04-30
관악구청,서울특별시 관악구 참숯5길 21,서울특별시 관악구 청룡동 1525-34,다목적,5,200,반경 30~150미터 이내(기종따라 다름),30,Jan-15,02-879-5831,37.4768066,126.9409493,2019-04-30
관악구청,서울특별시 관악구 문성로38라길 14,서울특별시 관악구 신원동 412-358 송이유치원,다목적,4,200,반경 30~150미터 이내(기종따라 다름),30,Jan-15,02-879-5831,37.4755467,126.929316,2019-04-30
관악구청,서울특별시 관악구 대학7길 35,서울특별시 관악구 대학동 244-152 삼성병설유치원,다목적,4,200,반경 30~150미터 이내(기종따라 다름),30,Jan-15,02-879-5831,37.4685059,126.939634,2019-04-30
관악구청,서울특별시 관악구 낙성대로4길 30,서울특별시 관악구 낙성대동 1624-20,다목적,5,200,반경 30~150미터 이내(기종따라 다름),30,Jan-15,02-879-5831,37.47646173,126.9578787,2019-04-30
관악구청,서울특별시 관악구 밤골길 6,서울특별시 관악구 삼성동 산69-32 신우단설유치원,다목적,5,200,반경 30~150미터 이내(기종따라 다름),30,Jan-15,02-879-5831,37.46232053,126.9316151,2019-04-30
관악구청,서울특별시 관악구 광신길 154,서울특별시 관악구 삼성동 1704-4 명성유치원,다목적,3,200,반경 30~150미터 이내(기종따라 다름),30,Jan-15,02-879-5831,37.4654781,126.9269964,2019-04-30
관악구청,서울특별시 관악구 난곡로 186,서울특별시 관악구 난곡동 621-5 신림유치원,다목적,3,200,반경 30~150미터 이내(기종따라 다름),30,Jan-15,02-879-5831,37.4718237,126.9198242,2019-04-30
관악구청,서울특별시 관악구 난곡로25가길 18,서울특별시 관악구 난곡동 711-11 난곡병설유치원,다목적,3,200,반경 30~150미터 이내(기종따라 다름),30,Jan-15,02-879-5831,37.4700542,126.9183876,2019-04-30
관악구청,서울특별시 관악구 법원단지2길 9,서울특별시 관악구 난곡동 613-25 미라클어린이집,다목적,4,200,반경 30~150미터 이내(기종따라 다름),30,Jan-15,02-879-5831,37.4738943,126.919427,2019-04-30
관악구청,서울특별시 관악구 난우길 34-4,서울특별시 관악구 미성동 602-12 난우초등학교,다목적,4,200,반경 30~150미터 이내(기종따라 다름),30,Jan-15,02-879-5831,37.4757163,126.9181953,2019-04-30
관악구청,서울특별시 관악구 광신길 177,서울특별시 관악구 대학동 336 원신초등학교,다목적,1,200,반경 30~150미터 이내(기종따라 다름),30,Jan-15,02-879-5831,37.467048,126.9274239,2019-04-30
관악구청,서울특별시 관악구 당곡2가길 21,서울특별시 관악구 보라매동 711-98 사랑어린이집,다목적,3,200,반경 30~150미터 이내(기종따라 다름),30,Jan-15,02-879-5831,37.4914654,126.9300093,2019-04-30
관악구청,서울특별시 관악구 양녕로6나길 30,서울특별시 관악구 중앙동 457-247,다목적,4,200,반경 30~150미터 이내(기종따라 다름),30,Jul-17,02-879-5831,37.4854884,126.9498426,2019-04-30
관악구청,서울특별시 관악구 청림3길 37,서울특별시 관악구 청림동 1-85,다목적,4,200,반경 30~150미터 이내(기종따라 다름),30,Jul-17,02-879-5831,37.48979825,126.9583388,2019-04-30
관악구청,서울특별시 관악구 남부순환로151길 65,서울특별시 관악구 신림동 524-1,다목적,5,200,반경 30~150미터 이내(기종따라 다름),30,Jul-17,02-879-5831,37.4842385,126.9147314,2019-04-30
관악구청,서울특별시 관악구 양녕로6다길 3,서울특별시 관악구 중앙동 1512-8,다목적,4,200,반경 30~150미터 이내(기종따라 다름),30,Jun-18,02-879-5831,37.4839419,126.9497961,2019-04-30
관악구청,서울특별시 관악구 청림3다길 15,서울특별시 관악구 청림동 1-62,다목적,4,200,반경 30~150미터 이내(기종따라 다름),30,Jun-18,02-879-5831,37.49019114,126.9577849,2019-04-30
관악구청,서울특별시 관악구 관악로 125,서울특별시 관악구 청룡동 1591-2,다목적,5,200,반경 30~150미터 이내(기종따라 다름),30,Jun-18,02-879-5831,37.47648006,126.9520515,2019-04-30
관악구청,서울특별시 관악구 봉천동 산58-1,서울특별시 관악구 인헌동 산 58-1,다목적,4,200,반경 30~150미터 이내(기종따라 다름),30,Jun-18,02-879-5831,37.47489669,126.958998,2019-04-30
관악구청,서울특별시 관악구 남부순환로260길 15,서울특별시 관악구 남현동 1071-37,다목적,4,200,반경 30~150미터 이내(기종따라 다름),30,Jun-18,02-879-5831,37.475114,126.9733522,2019-04-30
관악구청,서울특별시 관악구 관천로11길 69,서울특별시 관악구 신사동 487-22,다목적,5,200,반경 30~150미터 이내(기종따라 다름),30,Jun-18,02-879-5831,37.483583,126.921083,2019-04-30
관악구청,서울특별시 관악구 조원로2길 32,서울특별시 관악구 조원동 1655-22,다목적,5,200,반경 30~150미터 이내(기종따라 다름),30,Jun-18,02-879-5831,37.48229224,126.9018516,2019-04-30
관악구청,서울특별시 관악구 남부순환로 1455,서울특별시 관악구 조원동 538-15,다목적,4,200,반경 30~150미터 이내(기종따라 다름),30,Jun-18,02-879-5831,37.481661,126.9124003,2019-04-30
관악구청,서울특별시 관악구 난우10길 13,서울특별시 관악구 미성동 597-25,다목적,3,200,반경 30~150미터 이내(기종따라 다름),30,Jun-18,02-879-5831,37.4762317,126.918456,2019-04-30
관악구청,서울특별시 관악구 미성길 127,서울특별시 관악구 미성동 733,다목적,3,200,반경 30~150미터 이내(기종따라 다름),30,Jun-18,02-879-5831,37.47179,126.91228,2019-04-30
관악구청,서울특별시 관악구 남부순환로170길 6,서울특별시 관악구 신원동 1581-6,다목적,4,200,반경 30~150미터 이내(기종따라 다름),30,Jun-18,02-879-5831,37.48268497,126.9243839,2019-04-30
관악구청,서울특별시 관악구 난곡로 178,서울특별시 관악구 난곡동 635-22,다목적,4,200,반경 30~150미터 이내(기종따라 다름),30,Jun-18,02-879-5831,37.4709184,126.9200486,2019-04-30
관악구청,서울특별시 관악구 신림동 700-57,서울특별시 관악구 난곡동 700-57,다목적,4,200,반경 30~150미터 이내(기종따라 다름),30,Jun-18,02-879-5831,37.47000023,126.9200052,2019-04-30
관악구청,서울특별시 관악구 동광로49-31,서울특별시 관악구 난곡동 711-26,다목적,5,200,반경 30~150미터 이내(기종따라 다름),30,Jun-18,02-879-5831,37.47062478,126.9190903,2019-04-30
관악구청,서울특별시 관악구 문성로 212,서울특별시 관악구 신원동 1627-17,다목적,4,200,반경 30~150미터 이내(기종따라 다름),30,Jun-18,02-879-5831,37.4791021,126.9273116,2019-04-30
관악구청,서울특별시 관악구 문성로28길 9,서울특별시 관악구 신원동 1629-6,다목적,4,200,반경 30~150미터 이내(기종따라 다름),30,Jun-18,02-879-5831,37.4786946,126.9273966,2019-04-30
관악구청,서울특별시 관악구 대학7길 43,서울특별시 관악구 대학동 244-104,다목적,5,200,반경 30~150미터 이내(기종따라 다름),30,Jun-18,02-879-5831,37.4686004,126.9400508,2019-04-30
관악구청,서울특별시 관악구 봉천로41길 28,서울특별시 관악구 중앙동 886-7,다목적,5,200,반경 30~150미터 이내(기종따라 다름),30,Jun-18,02-879-5831,37.4839613,126.9481487,2019-04-30
관악구청,서울특별시 관악구 신림동 300-8,서울특별시 관악구 삼성동 300-8,다목적,3,200,반경 30~150미터 이내(기종따라 다름),30,Jun-18,02-879-5831,37.46627057,126.9307058,2019-04-30
관악구청,서울특별시 관악구 신림로28길 59,서울특별시 관악구 서림동 120-59,다목적,4,200,반경 30~150미터 이내(기종따라 다름),30,Jun-18,02-879-5831,37.472144,126.9366587,2019-04-30
관악구청,서울특별시 관악구 복은길 60,서울특별시 관악구 서림동 99-29,다목적,5,200,반경 30~150미터 이내(기종따라 다름),30,Jun-18,02-879-5831,37.4744832,126.9391541,2019-04-30
관악구청,서울특별시 관악구 복은7길 1,서울특별시 관악구 서림동 98-108,다목적,4,200,반경 30~150미터 이내(기종따라 다름),30,Jun-18,02-879-5831,37.474805,126.9400986,2019-04-30
관악구청,서울특별시 관악구 난곡로45길 5,서울특별시 관악구 미성동 763-68,다목적,4,200,반경 30~150미터 이내(기종따라 다름),30,Jun-18,02-879-5831,37.4762101,126.9153179,2019-04-30
관악구청,서울특별시 관악구 남부순환로144길 65,서울특별시 관악구 미성동 1478-31,다목적,4,200,반경 30~150미터 이내(기종따라 다름),30,Jun-18,02-879-5831,37.47838,126.9134662,2019-04-30
관악구청,서울특별시 관악구 관악로14길 38-9,서울특별시 관악구 낙성대동 1604-25,다목적,4,130,반경 30~150미터 이내(기종따라 다름),30,Jan-13,02-879-5831,37.47841637,126.9545195,2019-04-30
관악구청,서울특별시 관악구 남부순환로234길 72,서울특별시 관악구 낙성대동 1617-5,다목적,5,130,반경 30~150미터 이내(기종따라 다름),30,Jan-13,02-879-5831,37.4762998,126.9559735,2019-04-30
관악구청,서울특별시 관악구 낙성대로 12,서울특별시 관악구 낙성대동 1627-13,다목적,1,130,반경 30~150미터 이내(기종따라 다름),30,Jan-13,02-879-5831,37.4775453,126.9590676,2019-04-30
관악구청,서울특별시 관악구 청림6길 16,서울특별시 관악구 낙성대동 738-10,다목적,1,200,반경 30~150미터 이내(기종따라 다름),30,Jan-13,02-879-5831,37.4866553,126.9591958,2019-04-30
관악구청,서울특별시 관악구 법원단지21길 2,서울특별시 관악구 난곡동 610-140,다목적,1,200,반경 30~150미터 이내(기종따라 다름),30,Jan-13,02-879-5831,37.4750316,126.9228073,2019-04-30
관악구청,서울특별시 관악구 법원단지길 138,서울특별시 관악구 난곡동 610-148,다목적,3,130,반경 30~150미터 이내(기종따라 다름),30,Jan-13,02-879-5831,37.4756252,126.9243641,2019-04-30
관악구청,서울특별시 관악구 법원단지22길 34,서울특별시 관악구 난곡동 610-447,다목적,1,130,반경 30~150미터 이내(기종따라 다름),30,Jan-13,02-879-5831,37.47364015,126.9237814,2019-04-30
관악구청,서울특별시 관악구 난곡로34다길 3,서울특별시 관악구 난곡동 629-47,다목적,1,200,반경 30~150미터 이내(기종따라 다름),30,Jan-13,02-879-5831,37.4718824,126.922506,2019-04-30
관악구청,서울특별시 관악구 난곡로26나길 33,서울특별시 관악구 난곡동 646-203,다목적,1,130,반경 30~150미터 이내(기종따라 다름),30,Jan-13,02-879-5831,37.4685077,126.9234215,2019-04-30
관악구청,서울특별시 관악구 난곡로26나길 57,서울특별시 관악구 난곡동 652-53,다목적,5,130,반경 30~150미터 이내(기종따라 다름),30,Jan-13,02-879-5831,37.46752973,126.9229606,2019-04-30
관악구청,서울특별시 관악구 난곡로35나길 10,서울특별시 관악구 난곡동 706-26,다목적,1,130,반경 30~150미터 이내(기종따라 다름),30,Jan-13,02-879-5831,37.4732103,126.9181587,2019-04-30
관악구청,서울특별시 관악구 난향길 70,서울특별시 관악구 난향동675-98,다목적,5,130,반경 30~150미터 이내(기종따라 다름),30,Jan-13,02-879-5831,37.4629046,126.9155849,2019-04-30
관악구청,서울특별시 관악구 난향2길 5,서울특별시 관악구 난향동676-15,다목적,5,130,반경 30~150미터 이내(기종따라 다름),30,Jan-13,02-879-5831,37.46316475,126.9183824,2019-04-30
관악구청,서울특별시 관악구 난곡로9길 38,서울특별시 관악구 난향동685-125,다목적,1,130,반경 30~150미터 이내(기종따라 다름),30,Jan-13,02-879-5831,37.4636505,126.917681,2019-04-30
관악구청,서울특별시 관악구 남현12길 37,서울특별시 관악구 남현동 1053-29,다목적,5,130,반경 30~150미터 이내(기종따라 다름),30,Jan-13,02-879-5831,37.47219054,126.9718848,2019-04-30
관악구청,서울특별시 관악구 남부순환로260길 41,서울특별시 관악구 남현동 1071-21,다목적,4,130,반경 30~150미터 이내(기종따라 다름),30,Jan-13,02-879-5831,37.4743311,126.9724324,2019-04-30
관악구청,서울특별시 관악구 남현12길 18,서울특별시 관악구 남현동 1072-96,다목적,5,130,반경 30~150미터 이내(기종따라 다름),30,Jan-13,02-879-5831,37.47175,126.9728917,2019-04-30
관악구청,서울특별시 관악구 남현길 106,서울특별시 관악구 남현동 1076-21,다목적,4,130,반경 30~150미터 이내(기종따라 다름),30,Jan-13,02-879-5831,37.4724787,126.9746307,2019-04-30
관악구청,서울특별시 관악구 남현6길 45,서울특별시 관악구 남현동 1079-1,다목적,1,130,반경 30~150미터 이내(기종따라 다름),30,Jan-13,02-879-5831,37.47310877,126.9742333,2019-04-30
관악구청,서울특별시 관악구 호암로22길 11,서울특별시 관악구 대학동 1532-16,다목적,5,130,반경 30~150미터 이내(기종따라 다름),30,Jan-13,02-879-5831,37.46902206,126.9334026,2019-04-30
관악구청,서울특별시 관악구 대학6길 25,서울특별시 관악구 대학동 1536-17,다목적,5,200,반경 30~150미터 이내(기종따라 다름),30,Jan-13,02-879-5831,37.468939,126.9362655,2019-04-30
관악구청,서울특별시 관악구 신림로 67,서울특별시 관악구 대학동 225,다목적,3,130,반경 30~150미터 이내(기종따라 다름),30,Jan-13,02-879-5831,37.4702234,126.9424356,2019-04-30
관악구청,서울특별시 관악구 신림로3가길 46,서울특별시 관악구 대학동 231-18,다목적,4,130,반경 30~150미터 이내(기종따라 다름),30,Jan-13,02-879-5831,37.4689849,126.9421806,2019-04-30
관악구청,서울특별시 관악구 대학10길 3-3,서울특별시 관악구 대학동 818-68,다목적,1,130,반경 30~150미터 이내(기종따라 다름),30,Jan-13,02-879-5831,37.46749918,126.9374659,2019-04-30
관악구청,서울특별시 관악구 난곡로52길 16,서울특별시 관악구 미성동 1565-6,다목적,4,130,반경 30~150미터 이내(기종따라 다름),30,Jan-13,02-879-5831,37.4781988,126.9162268,2019-04-30
관악구청,서울특별시 관악구 법원단지5나길 58,서울특별시 관악구 미성동 598-72,다목적,2,130,반경 30~150미터 이내(기종따라 다름),30,Jan-13,02-879-5831,37.47639628,126.9220151,2019-04-30
관악구청,서울특별시 관악구 미성3길 20 신림동부센트레빌아파트 부근,서울특별시 관악구 미성동 724-49,다목적,5,130,반경 30~150미터 이내(기종따라 다름),30,Jan-13,02-879-5831,37.4736308,126.9169141,2019-04-30
관악구청,서울특별시 관악구 문성로16길 40,서울특별시 관악구 미성동 745-23,다목적,3,130,반경 30~150미터 이내(기종따라 다름),30,Jan-13,02-879-5831,37.4754058,126.9122182,2019-04-30
관악구청,서울특별시 관악구 미성7길 26,서울특별시 관악구 미성동 산117-10,다목적,5,130,반경 30~150미터 이내(기종따라 다름),30,Jan-13,02-879-5831,37.474007,126.9140292,2019-04-30
관악구청,서울특별시 관악구 봉천로13길 28,서울특별시 관악구 보라매동 671-2,다목적,4,130,반경 30~150미터 이내(기종따라 다름),30,Jan-13,02-879-5831,37.4897558,126.930771,2019-04-30
관악구청,서울특별시 관악구 보라매로3길 5,서울특별시 관악구 보라매동 702-100,다목적,1,130,반경 30~150미터 이내(기종따라 다름),30,Jan-13,02-879-5831,37.4911605,126.926533,2019-04-30
관악구청,서울특별시 관악구 보라매로 14-5,서울특별시 관악구 보라매동 706-22,다목적,4,130,반경 30~150미터 이내(기종따라 다름),30,Jan-13,02-879-5831,37.49088397,126.9279718,2019-04-30
관악구청,서울특별시 관악구 당곡6길 77,서울특별시 관악구 보라매동 715-3,다목적,1,130,반경 30~150미터 이내(기종따라 다름),30,Jan-13,02-879-5831,37.49311262,126.9312235,2019-04-30
관악구청,서울특별시 관악구 당곡6길 41,서울특별시 관악구 보라매동 716-11,다목적,4,130,반경 30~150미터 이내(기종따라 다름),30,Jan-13,02-879-5831,37.49210332,126.929668,2019-04-30
관악구청,서울특별시 관악구 봉천로7길 25,서울특별시 관악구 보라매동 736-1,다목적,2,130,반경 30~150미터 이내(기종따라 다름),30,Jan-13,02-879-5831,37.4905776,126.9262021,2019-04-30
관악구청,서울특별시 관악구 호암로18나길 27,서울특별시 관악구 삼성동 306-49,다목적,5,130,반경 30~150미터 이내(기종따라 다름),30,Jan-13,02-879-5831,37.4643696,126.9329503,2019-04-30
관악구청,서울특별시 관악구 호암로16길 70,서울특별시 관악구 삼성동 306-80,다목적,1,130,반경 30~150미터 이내(기종따라 다름),30,Jan-13,02-879-5831,37.4654243,126.9332914,2019-04-30
관악구청,서울특별시 관악구 호암로 528 농협하나로마트 부근,서울특별시 관악구 삼성동 307-5,다목적,4,130,반경 30~150미터 이내(기종따라 다름),30,Jan-13,02-879-5831,37.4647145,126.9317212,2019-04-30
관악구청,서울특별시 관악구 약수암길 8,서울특별시 관악구 삼성동 316-129,다목적,4,130,반경 30~150미터 이내(기종따라 다름),30,Jan-13,02-879-5831,37.46100702,126.9321272,2019-04-30
관악구청,서울특별시 관악구 양지길 28,서울특별시 관악구 삼성동 378-5,다목적,2,130,반경 30~150미터 이내(기종따라 다름),30,Jan-13,02-879-5831,37.47144923,126.9311139,2019-04-30
관악구청,서울특별시 관악구 쑥고개로2다길 17,서울특별시 관악구 서림동 1564-6,다목적,5,130,반경 30~150미터 이내(기종따라 다름),30,Jan-13,02-879-5831,37.47627005,126.9396876,2019-04-30
관악구청,서울특별시 관악구 남부순환로192길 17,서울특별시 관악구 서림동 408-10,다목적,1,130,반경 30~150미터 이내(기종따라 다름),30,Jan-13,02-879-5831,37.4838358,126.9345448,2019-04-30
관악구청,서울특별시 관악구 신림로36길 25,서울특별시 관악구 서림동 94-10,다목적,5,130,반경 30~150미터 이내(기종따라 다름),30,Jan-13,02-879-5831,37.4761076,126.9388524,2019-04-30
관악구청,서울특별시 관악구 신림로38길 6,서울특별시 관악구 서림동 94-147,다목적,5,130,반경 30~150미터 이내(기종따라 다름),30,Jan-13,02-879-5831,37.4764653,126.9378501,2019-04-30
관악구청,서울특별시 관악구 복은12길 13,서울특별시 관악구 서림동 98-57,다목적,5,130,반경 30~150미터 이내(기종따라 다름),30,Jan-13,02-879-5831,37.47462974,126.9419663,2019-04-30
관악구청,서울특별시 관악구 서원길 4,서울특별시 관악구 서원동 409-16,다목적,3,130,반경 30~150미터 이내(기종따라 다름),30,Jan-13,02-879-5831,37.4775992,126.932691,2019-04-30
관악구청,서울특별시 관악구 서원5길 36,서울특별시 관악구 서원동 409-330,다목적,1,130,반경 30~150미터 이내(기종따라 다름),30,Jan-13,02-879-5831,37.4762095,126.9345559,2019-04-30
관악구청,서울특별시 관악구 문성로40길 24,서울특별시 관악구 서원동 412-21,다목적,4,130,반경 30~150미터 이내(기종따라 다름),30,Jan-13,02-879-5831,37.4773133,126.9310692,2019-04-30
관악구청,서울특별시 관악구 신림로48길 6,서울특별시 관악구 서원동 92-362,다목적,3,130,반경 30~150미터 이내(기종따라 다름),30,Jan-13,02-879-5831,37.4788898,126.9324208,2019-04-30
관악구청,서울특별시 관악구 구암길 76,서울특별시 관악구 성현동 1712-1,다목적,3,130,반경 30~150미터 이내(기종따라 다름),30,Jan-13,02-879-5831,37.4908043,126.9478042,2019-04-30
관악구청,서울특별시 관악구 관악로37길 63,서울특별시 관악구 성현동 40-7,다목적,1,130,반경 30~150미터 이내(기종따라 다름),30,Jan-13,02-879-5831,37.48698336,126.9561604,2019-04-30
관악구청,서울특별시 관악구 은천로35바길 17,서울특별시 관악구 성현동 41-11,다목적,1,130,반경 30~150미터 이내(기종따라 다름),30,Jan-13,02-879-5831,37.48821956,126.9548477,2019-04-30
관악구청,서울특별시 관악구 은천로35길 52,서울특별시 관악구 성현동 41-719,다목적,5,130,반경 30~150미터 이내(기종따라 다름),30,Jan-13,02-879-5831,37.48837014,126.9539779,2019-04-30
관악구청,서울특별시 관악구 성현로 53 구암중학교 부근,서울특별시 관악구 성현동 1712-5,다목적,4,130,반경 30~150미터 이내(기종따라 다름),30,Jan-13,02-879-5831,37.4925845,126.9485751,2019-04-30
관악구청,서울특별시 관악구 신림로71길 45,서울특별시 관악구 신림동 1440-25,다목적,4,130,반경 30~150미터 이내(기종따라 다름),30,Jan-13,02-879-5831,37.4878966,126.925864,2019-04-30
관악구청,서울특별시 관악구 관천로24길 3,서울특별시 관악구 신림동 1718,다목적,1,200,반경 30~150미터 이내(기종따라 다름),30,Jan-13,02-879-5831,37.4889823,126.921798,2019-04-30
관악구청,서울특별시 관악구 관천로11길 13,서울특별시 관악구 신사동 1464-43,다목적,5,130,반경 30~150미터 이내(기종따라 다름),30,Jan-13,02-879-5831,37.484181,126.9242226,2019-04-30
관악구청,서울특별시 관악구 남부순환로151길 13,서울특별시 관악구 신사동 526-4,다목적,3,130,반경 30~150미터 이내(기종따라 다름),30,Jan-13,02-879-5831,37.48285069,126.9171424,2019-04-30
관악구청,서울특별시 관악구 조원로31길 49,서울특별시 관악구 신사동 475-2,다목적,5,130,반경 30~150미터 이내(기종따라 다름),30,Jan-13,02-879-5831,37.4880584,126.9190058,2019-04-30
관악구청,서울특별시 관악구 남부순환로161길 64,서울특별시 관악구 신사동 482-23,다목적,5,130,반경 30~150미터 이내(기종따라 다름),30,Jan-13,02-879-5831,37.4851353,126.9189869,2019-04-30
관악구청,서울특별시 관악구 난곡로66가길 28,서울특별시 관악구 신사동 524-33,다목적,3,130,반경 30~150미터 이내(기종따라 다름),30,Jan-13,02-879-5831,37.4838128,126.9147304,2019-04-30
관악구청,서울특별시 관악구 남부순환로149길 13,서울특별시 관악구 신사동 528-38,다목적,3,130,반경 30~150미터 이내(기종따라 다름),30,Jan-13,02-879-5831,37.48277113,126.9158298,2019-04-30
관악구청,서울특별시 관악구 남부순환로166길 61,서울특별시 관악구 신원동 1583-42,다목적,4,130,반경 30~150미터 이내(기종따라 다름),30,Jan-13,02-879-5831,37.4805171,126.9239334,2019-04-30
관악구청,서울특별시 관악구 문성로32길 18,서울특별시 관악구 신원동 1630-30,다목적,1,130,반경 30~150미터 이내(기종따라 다름),30,Jan-13,02-879-5831,37.4784722,126.9286965,2019-04-30
관악구청,서울특별시 관악구 문성로38다길 2,서울특별시 관악구 신원동 412-339,다목적,3,130,반경 30~150미터 이내(기종따라 다름),30,Jan-13,02-879-5831,37.4758096,126.9299861,2019-04-30
관악구청,서울특별시 관악구 문성로38길 25,서울특별시 관악구 신원동 415-51,다목적,1,130,반경 30~150미터 이내(기종따라 다름),30,Jan-13,02-879-5831,37.4775019,126.9303984,2019-04-30
관악구청,서울특별시 관악구 국회단지13길 16,서울특별시 관악구 은천동 635-260,다목적,5,130,반경 30~150미터 이내(기종따라 다름),30,Jan-13,02-879-5831,37.4891419,126.941028,2019-04-30
관악구청,서울특별시 관악구 국회단지6길 6,서울특별시 관악구 은천동 635-345,다목적,3,130,반경 30~150미터 이내(기종따라 다름),30,Jan-13,02-879-5831,37.487878,126.9409666,2019-04-30
관악구청,서울특별시 관악구 국회단지5길 16,서울특별시 관악구 은천동 635-545,다목적,1,130,반경 30~150미터 이내(기종따라 다름),30,Jan-13,02-879-5831,37.4881129,126.9394278,2019-04-30
관악구청,서울특별시 관악구 봉천로 355,서울특별시 관악구 은천동 943-4,다목적,2,130,반경 30~150미터 이내(기종따라 다름),30,Jan-13,02-879-5831,37.4844461,126.9397826,2019-04-30
관악구청,서울특별시 관악구 봉천로25길 13,서울특별시 관악구 은천동 956-3,다목적,1,130,반경 30~150미터 이내(기종따라 다름),30,Jan-13,02-879-5831,37.4858379,126.9378464,2019-04-30
관악구청,서울특별시 관악구 은천로 6,서울특별시 관악구 은천동 957-1,다목적,5,130,반경 30~150미터 이내(기종따라 다름),30,Jan-13,02-879-5831,37.485635,126.939165,2019-04-30
관악구청,서울특별시 관악구 인헌9길 74,서울특별시 관악구 인헌동 산1-8(인헌고~남현동 가는길),다목적,1,200,반경 30~150미터 이내(기종따라 다름),30,Jan-13,02-879-5831,37.4715662,126.9702013,2019-04-30
관악구청,서울특별시 관악구 인헌길 71,서울특별시 관악구 인헌동 180-126,다목적,3,130,반경 30~150미터 이내(기종따라 다름),30,Jan-13,02-879-5831,37.4723071,126.9668256,2019-04-30
관악구청,서울특별시 관악구 인헌1나길 17,서울특별시 관악구 인헌동 1650-22,다목적,1,130,반경 30~150미터 이내(기종따라 다름),30,Jan-13,02-879-5831,37.4734096,126.9697804,2019-04-30
관악구청,서울특별시 관악구 인헌1길 59,서울특별시 관악구 인헌동 1653-10,다목적,1,130,반경 30~150미터 이내(기종따라 다름),30,Jan-13,02-879-5831,37.4747384,126.9702641,2019-04-30
관악구청,서울특별시 관악구 인헌16길 24,서울특별시 관악구 인헌동 180-347,다목적,4,130,반경 30~150미터 이내(기종따라 다름),30,Jan-13,02-879-5831,37.4699839,126.9666271,2019-04-30
관악구청,서울특별시 관악구 낙성대역6길 14,서울특별시 관악구 인헌동 196-310,다목적,5,130,반경 30~150미터 이내(기종따라 다름),30,Jan-13,02-879-5831,37.4746245,126.9618791,2019-04-30
관악구청,서울특별시 관악구 조원로6길 15,서울특별시 관악구 조원동 1652,다목적,6,130,반경 30~150미터 이내(기종따라 다름),30,Jan-13,02-879-5831,37.48269142,126.9048486,2019-04-30
관악구청,서울특별시 관악구 조원로4길 33,서울특별시 관악구 조원동 1658,다목적,4,130,반경 30~150미터 이내(기종따라 다름),30,Jan-13,02-879-5831,37.48206,126.9052913,2019-04-30
관악구청,서울특별시 관악구 남부순환로145길 11,서울특별시 관악구 조원동 540-11,다목적,5,130,반경 30~150미터 이내(기종따라 다름),30,Jan-13,02-879-5831,37.4821235,126.9120642,2019-04-30
관악구청,서울특별시 관악구 봉천로 471-1,서울특별시 관악구 중앙동 860-19,다목적,1,130,반경 30~150미터 이내(기종따라 다름),30,Jan-13,02-879-5831,37.48233475,126.9525823,2019-04-30
관악구청,서울특별시 관악구 중앙길 83,서울특별시 관악구 중앙동 457-155,다목적,1,130,반경 30~150미터 이내(기종따라 다름),30,Jan-13,02-879-5831,37.4854067,126.9502814,2019-04-30
관악구청,서울특별시 관악구 봉천로41길 10,서울특별시 관악구 중앙동 885-1,다목적,5,130,반경 30~150미터 이내(기종따라 다름),30,Jan-13,02-879-5831,37.48328685,126.9479671,2019-04-30
관악구청,서울특별시 관악구 장군봉2길 1,서울특별시 관악구 청룡동 1521-34,다목적,5,130,반경 30~150미터 이내(기종따라 다름),30,Jan-13,02-879-5831,37.48226928,126.9399827,2019-04-30
관악구청,서울특별시 관악구 남부순환로206길 32,서울특별시 관악구 청룡동 1526-2,다목적,1,130,반경 30~150미터 이내(기종따라 다름),30,Jan-13,02-879-5831,37.4809394,126.9417079,2019-04-30
관악구청,서울특별시 관악구 청룡9길 12,서울특별시 관악구 청룡동 1577-1,다목적,1,130,반경 30~150미터 이내(기종따라 다름),30,Jan-13,02-879-5831,37.4786256,126.9465559,2019-04-30
관악구청,서울특별시 관악구 청룡15길 23,서울특별시 관악구 청룡동 1579-33,다목적,1,130,반경 30~150미터 이내(기종따라 다름),30,Jan-13,02-879-5831,37.47660905,126.9468028,2019-04-30
관악구청,서울특별시 관악구 남부순환로210길 29,서울특별시 관악구 청룡동 915-5,다목적,5,130,반경 30~150미터 이내(기종따라 다름),30,Jan-13,02-879-5831,37.480545,126.9447674,2019-04-30
관악구청,서울특별시 관악구 청룡8길 5,서울특별시 관악구 청룡동 917-1,다목적,4,130,반경 30~150미터 이내(기종따라 다름),30,Jan-13,02-879-5831,37.479756,126.9457011,2019-04-30
관악구청,서울특별시 관악구 청림길 7-1 서희스타힐스 부근,서울특별시 관악구 청림동 13-44,다목적,4,130,반경 30~150미터 이내(기종따라 다름),30,Jan-13,02-879-5831,37.48845529,126.9590835,2019-04-30
관악구청,서울특별시 관악구 양녕로6길 118,서울특별시 관악구 청림동 14-56,다목적,4,130,반경 30~150미터 이내(기종따라 다름),30,Jan-13,02-879-5831,37.4836609,126.9529765,2019-04-30
관악구청,서울특별시 관악구 청림3라길 20,서울특별시 관악구 청림동 4-39,다목적,3,130,반경 30~150미터 이내(기종따라 다름),30,Jan-13,02-879-5831,37.4903654,126.9596802,2019-04-30
관악구청,서울특별시 관악구 행운1라길 56,서울특별시 관악구 행운동 100-123,다목적,1,130,반경 30~150미터 이내(기종따라 다름),30,Jan-13,02-879-5831,37.4816213,126.9581077,2019-04-30
관악구청,서울특별시 관악구 행운5길 24,서울특별시 관악구 행운동 100-75,다목적,1,130,반경 30~150미터 이내(기종따라 다름),30,Jan-13,02-879-5831,37.4820344,126.9589816,2019-04-30
관악구청,서울특별시 관악구 행운길 38,서울특별시 관악구 행운동 106-5,다목적,1,130,반경 30~150미터 이내(기종따라 다름),30,Jan-13,02-879-5831,37.4806543,126.9596294,2019-04-30
관악구청,서울특별시 관악구 솔밭로5길 11,서울특별시 관악구 행운동 148-28,다목적,4,130,반경 30~150미터 이내(기종따라 다름),30,Jan-13,02-879-5831,37.4797705,126.9629216,2019-04-30
관악구청,서울특별시 관악구 남부순환로247다길 55,서울특별시 관악구 행운동 1688-3,다목적,1,130,반경 30~150미터 이내(기종따라 다름),30,Jan-13,02-879-5831,37.4783454,126.9643964,2019-04-30
관악구청,서울특별시 관악구 남부순환로247길 13,서울특별시 관악구 행운동 1688-82,다목적,4,130,반경 30~150미터 이내(기종따라 다름),30,Jan-13,02-879-5831,37.4768193,126.9663893,2019-04-30
관악구청,서울특별시 관악구 행운1나길 16,서울특별시 관악구 행운동 63-34,다목적,1,130,반경 30~150미터 이내(기종따라 다름),30,Jan-13,02-879-5831,37.48204993,126.9553984,2019-04-30
관악구청,서울특별시 관악구 보라매로6길 46,서울특별시 관악구 보라매동 715(이동형),다목적,1,130,반경 30~150미터 이내(기종따라 다름),30,Feb-13,02-879-5831,37.4925693,126.9295175,2019-04-30
관악구청,서울특별시 관악구 국회단지19길 1,서울특별시 관악구 은천동 635-146,다목적,3,130,반경 30~150미터 이내(기종따라 다름),30,Feb-13,02-879-5831,37.4896757,126.9419872,2019-04-30
관악구청,서울특별시 관악구 청림6길 21,서울특별시 관악구 청림동 16-44,다목적,1,130,반경 30~150미터 이내(기종따라 다름),30,Feb-13,02-879-5831,37.48635301,126.9592029,2019-04-30
관악구청,서울특별시 관악구 난곡로26길 89,서울특별시 관악구 난곡동 646-273(이동형),다목적,1,130,반경 30~150미터 이내(기종따라 다름),30,Feb-13,02-879-5831,37.4692699,126.9244382,2019-04-30
관악구청,서울특별시 관악구 난곡로26길 89,서울특별시 관악구 난곡동 661-54,다목적,4,200,반경 30~150미터 이내(기종따라 다름),30,Feb-13,02-879-5831,37.4692699,126.9244382,2019-04-30
관악구청,서울특별시 관악구 양지12길 5,서울특별시 관악구 삼성동 354-35,다목적,4,130,반경 30~150미터 이내(기종따라 다름),30,Feb-13,02-879-5831,37.46922799,126.9290902,2019-04-30
관악구청,서울특별시 관악구 봉천로21라길 10,서울특별시 관악구 보라매동 662-102,다목적,1,130,반경 30~150미터 이내(기종따라 다름),30,Jun-13,02-879-5831,37.4891281,126.9336928,2019-04-30
관악구청,서울특별시 관악구 양녕로 16길 32,서울특별시 관악구 성현동 101-314,다목적,1,130,반경 30~150미터 이내(기종따라 다름),30,Jun-13,02-879-5831,37.49084507,126.9456514,2019-04-30
관악구청,서울특별시 관악구 구암5가길 32,서울특별시 관악구 성현동 1699-13,다목적,1,130,반경 30~150미터 이내(기종따라 다름),30,Jun-13,02-879-5831,37.4913572,126.946317,2019-04-30
관악구청,서울특별시 관악구 남부순환로 1561-1,서울특별시 관악구 신사동 1464-64,다목적,1,130,반경 30~150미터 이내(기종따라 다름),30,Jun-13,02-879-5831,37.4837519,126.92407,2019-04-30
관악구청,서울특별시 관악구 신림로44길 24,서울특별시 관악구 서원동 92-190,다목적,1,130,반경 30~150미터 이내(기종따라 다름),30,Jun-13,02-879-5831,37.4784162,126.9351641,2019-04-30
관악구청,서울특별시 관악구 남부순환로240길 20,서울특별시 관악구 낙성대동 1628-32,다목적,4,130,반경 30~150미터 이내(기종따라 다름),30,Oct-13,02-879-5831,37.4770988,126.9604464,2019-04-30
관악구청,서울특별시 관악구 관악로14가길 69,서울특별시 관악구 낙성대동 산54-10,다목적,5,130,반경 30~150미터 이내(기종따라 다름),30,Oct-13,02-879-5831,37.4752499,126.9551481,2019-04-30
관악구청,서울특별시 관악구 봉천로522-8,서울특별시 관악구 낙성대동 1612-13,다목적,5,130,반경 30~150미터 이내(기종따라 다름),30,Oct-13,02-879-5831,37.4789899,126.9557129,2019-04-30
관악구청,서울특별시 관악구 낙성대로3길 37,서울특별시 관악구 낙성대동 738-340,다목적,1,130,반경 30~150미터 이내(기종따라 다름),30,Oct-13,02-879-5831,37.473014,126.9603062,2019-04-30
관악구청,서울특별시 관악구 난향길 92,서울특별시 관악구 난향동675-17,다목적,2,130,반경 30~150미터 이내(기종따라 다름),30,Oct-13,02-879-5831,37.46357766,126.9146307,2019-04-30
관악구청,서울특별시 관악구 난향10길 30,서울특별시 관악구 난향동675-123,다목적,4,130,반경 30~150미터 이내(기종따라 다름),30,Oct-13,02-879-5831,37.4634635,126.916909,2019-04-30
관악구청,서울특별시 관악구 남현7길 55,서울특별시 관악구 남현동 1086-50,다목적,1,130,반경 30~150미터 이내(기종따라 다름),30,Oct-13,02-879-5831,37.47365232,126.9786041,2019-04-30
관악구청,서울특별시 관악구 남현7길 25,서울특별시 관악구 남현동 1083-28 맞은편,다목적,1,130,반경 30~150미터 이내(기종따라 다름),30,Oct-13,02-879-5831,37.47357226,126.9768615,2019-04-30
관악구청,서울특별시 관악구 남현길 55 예촌어린이공원 부근,서울특별시 관악구 남현동 1083-3,다목적,4,130,반경 30~150미터 이내(기종따라 다름),30,Oct-13,02-879-5831,37.474299,126.9762078,2019-04-30
관악구청,서울특별시 관악구 남현3길 43,서울특별시 관악구 남현동 1063-2,다목적,1,130,반경 30~150미터 이내(기종따라 다름),30,Oct-13,02-879-5831,37.4750826,126.9790846,2019-04-30
관악구청,서울특별시 관악구 대학21길 9,서울특별시 관악구 대학동 251-179,다목적,1,130,반경 30~150미터 이내(기종따라 다름),30,Oct-13,02-879-5831,37.4657543,126.9384245,2019-04-30
관악구청,서울특별시 관악구 신림로11길 131,서울특별시 관악구 대학동 251-214,다목적,1,130,반경 30~150미터 이내(기종따라 다름),30,Oct-13,02-879-5831,37.4649013,126.9398709,2019-04-30
관악구청,서울특별시 관악구 신림로11길 82,서울특별시 관악구 대학동 251-161,다목적,4,130,반경 30~150미터 이내(기종따라 다름),30,Oct-13,02-879-5831,37.4667369,126.9385711,2019-04-30
관악구청,서울특별시 관악구 대학14길 70,서울특별시 관악구 대학동 254-20,다목적,1,130,반경 30~150미터 이내(기종따라 다름),30,Oct-13,02-879-5831,37.46524859,126.9349482,2019-04-30
관악구청,서울특별시 관악구 대학길 125,서울특별시 관악구 대학동 251-149,다목적,2,130,반경 30~150미터 이내(기종따라 다름),30,Oct-13,02-879-5831,37.46544538,126.9384398,2019-04-30
관악구청,서울특별시 관악구 난곡로 235,서울특별시 관악구 미성동 756-16,다목적,1,130,반경 30~150미터 이내(기종따라 다름),30,Oct-13,02-879-5831,37.4752664,126.9164905,2019-04-30
관악구청,서울특별시 관악구 난곡로 235,서울특별시 관악구 미성동 산121-6(아카시아마을),다목적,1,130,반경 30~150미터 이내(기종따라 다름),30,Oct-13,02-879-5831,37.4752568,126.9164905,2019-04-30
관악구청,서울특별시 관악구 당곡2길 63,서울특별시 관악구 보라매동 685-66호 맞은편,다목적,3,130,반경 30~150미터 이내(기종따라 다름),30,Oct-13,02-879-5831,37.4919915,126.9319864,2019-04-30
관악구청,서울특별시 관악구 봉천로 243,서울특별시 관악구 보라매동 971-16,다목적,1,130,반경 30~150미터 이내(기종따라 다름),30,Oct-13,02-879-5831,37.48934417,126.9287941,2019-04-30
관악구청,서울특별시 관악구 봉천로21길 108,서울특별시 관악구 보라매동 679 당곡고정문,다목적,1,130,반경 30~150미터 이내(기종따라 다름),30,Oct-13,02-879-5831,37.4916205,126.9346016,2019-04-30
관악구청,서울특별시 관악구 봉천로21길 83,서울특별시 관악구 보라매동 673-72호 앞,다목적,1,130,반경 30~150미터 이내(기종따라 다름),30,Oct-13,02-879-5831,37.4905351,126.9340516,2019-04-30
관악구청,서울특별시 관악구 봉천로23길 86-4,서울특별시 관악구 보라매동 647-90,다목적,1,130,반경 30~150미터 이내(기종따라 다름),30,Oct-13,02-879-5831,37.48900524,126.9372879,2019-04-30
관악구청,서울특별시 관악구 양지길 35,서울특별시 관악구 삼성동 382-5,다목적,5,130,반경 30~150미터 이내(기종따라 다름),30,Oct-13,02-879-5831,37.47118571,126.9303093,2019-04-30
관악구청,서울특별시 관악구 양지길 91,서울특별시 관악구 삼성동 361-71,다목적,3,130,반경 30~150미터 이내(기종따라 다름),30,Oct-13,02-879-5831,37.46940198,126.9307054,2019-04-30
관악구청,서울특별시 관악구 약수암1길 2,서울특별시 관악구 삼성동 316-101,다목적,4,130,반경 30~150미터 이내(기종따라 다름),30,Oct-13,02-879-5831,37.46009762,126.9330006,2019-04-30
관악구청,서울특별시 관악구 신림로29길 3-30,서울특별시 관악구 서림동 403-1,다목적,1,130,반경 30~150미터 이내(기종따라 다름),30,Oct-13,02-879-5831,37.4742525,126.9334793,2019-04-30
관악구청,서울특별시 관악구 복은2길 50,서울특별시 관악구 서림동 105-35,다목적,5,130,반경 30~150미터 이내(기종따라 다름),30,Oct-13,02-879-5831,37.4733304,126.9385287,2019-04-30
관악구청,서울특별시 관악구 서림3길 67,서울특별시 관악구 서림동 103-223,다목적,1,200,반경 30~150미터 이내(기종따라 다름),30,Oct-13,02-879-5831,37.4716956,126.9414333,2019-04-30
관악구청,서울특별시 관악구 복은8길 41,서울특별시 관악구 서림동 98-199,다목적,1,130,반경 30~150미터 이내(기종따라 다름),30,Oct-13,02-879-5831,37.47383236,126.9423633,2019-04-30
관악구청,서울특별시 관악구 서림7길 71,서울특별시 관악구 서림동 103-170,다목적,1,130,반경 30~150미터 이내(기종따라 다름),30,Oct-13,02-879-5831,37.4722248,126.9422491,2019-04-30
관악구청,서울특별시 관악구 쑥고개로2가길 6,서울특별시 관악구 서림동 95-76,다목적,1,130,반경 30~150미터 이내(기종따라 다름),30,Oct-13,02-879-5831,37.477154,126.938789,2019-04-30
관악구청,서울특별시 관악구 서원3길 20,서울특별시 관악구 서원동 409-202,다목적,5,130,반경 30~150미터 이내(기종따라 다름),30,Oct-13,02-879-5831,37.476723,126.9338453,2019-04-30
관악구청,서울특별시 관악구 남부순환로200다길 26,서울특별시 관악구 서원동 1506-7 맞은편,다목적,5,130,반경 30~150미터 이내(기종따라 다름),30,Oct-13,02-879-5831,37.48303503,126.9357558,2019-04-30
관악구청,서울특별시 관악구 남부순환로190길 31,서울특별시 관악구 서원동 10-104,다목적,3,130,반경 30~150미터 이내(기종따라 다름),30,Oct-13,02-879-5831,37.48314958,126.9342646,2019-04-30
관악구청,서울특별시 관악구 남부순환로190가길 33,서울특별시 관악구 서원동 10-186,다목적,1,130,반경 30~150미터 이내(기종따라 다름),30,Oct-13,02-879-5831,37.48212703,126.9339117,2019-04-30
관악구청,서울특별시 관악구 신림로44나길 27,서울특별시 관악구 서원동 92-205,다목적,1,130,반경 30~150미터 이내(기종따라 다름),30,Oct-13,02-879-5831,37.47816311,126.9361163,2019-04-30
관악구청,서울특별시 관악구 신림로44가길 21,서울특별시 관악구 서원동 92-239,다목적,1,130,반경 30~150미터 이내(기종따라 다름),30,Oct-13,02-879-5831,37.4780067,126.9353116,2019-04-30
관악구청,서울특별시 관악구 신림로 294,서울특별시 관악구 서원동 1641-52,다목적,1,130,반경 30~150미터 이내(기종따라 다름),30,Oct-13,02-879-5831,37.4806604,126.9304739,2019-04-30
관악구청,서울특별시 관악구 남부순환로184길 40,서울특별시 관악구 서원동 10-299,다목적,4,130,반경 30~150미터 이내(기종따라 다름),30,Oct-13,02-879-5831,37.48243252,126.9319952,2019-04-30
관악구청,서울특별시 관악구 남부순환로180길 10,서울특별시 관악구 서원동 75-8,다목적,1,130,반경 30~150미터 이내(기종따라 다름),30,Oct-13,02-879-5831,37.4837648,126.9308677,2019-04-30
관악구청,서울특별시 관악구 은천로21길 40,서울특별시 관악구 성현동 480-51,다목적,4,130,반경 30~150미터 이내(기종따라 다름),30,Oct-13,02-879-5831,37.48853594,126.9483787,2019-04-30
관악구청,서울특별시 관악구 구암5가길 16,서울특별시 관악구 성현동 488-7,다목적,3,130,반경 30~150미터 이내(기종따라 다름),30,Oct-13,02-879-5831,37.49075993,126.9468095,2019-04-30
관악구청,서울특별시 관악구 신림로71길 9,서울특별시 관악구 신림동 1430-1,다목적,1,130,반경 30~150미터 이내(기종따라 다름),30,Oct-13,02-879-5831,37.4882767,126.9277322,2019-04-30
관악구청,서울특별시 관악구 남부순환로 1623,서울특별시 관악구 신림동 1422-24,다목적,1,130,반경 30~150미터 이내(기종따라 다름),30,Oct-13,02-879-5831,37.4846504,126.9309545,2019-04-30
관악구청,서울특별시 관악구 신림동길 6,서울특별시 관악구 신림동 1430-12,다목적,5,130,반경 30~150미터 이내(기종따라 다름),30,Oct-13,02-879-5831,37.4875265,126.9280141,2019-04-30
관악구청,서울특별시 관악구 신사로26길 16,서울특별시 관악구 신사동 475-75,다목적,1,130,반경 30~150미터 이내(기종따라 다름),30,Oct-13,02-879-5831,37.48865582,126.9183465,2019-04-30
관악구청,서울특별시 관악구 조원로 171,서울특별시 관악구 신사동 462-12,다목적,5,130,반경 30~150미터 이내(기종따라 다름),30,Oct-13,02-879-5831,37.4862476,126.9212097,2019-04-30
관악구청,서울특별시 관악구 관천로 77,서울특별시 관악구 신사동 463-76,다목적,1,200,반경 30~150미터 이내(기종따라 다름),30,Oct-13,02-879-5831,37.48545278,126.9236431,2019-04-30
관악구청,서울특별시 관악구 문성로32길 36,서울특별시 관악구 신원동 414-21,다목적,1,130,반경 30~150미터 이내(기종따라 다름),30,Oct-13,02-879-5831,37.4776178,126.9287709,2019-04-30
관악구청,서울특별시 관악구 문성로38길 18,서울특별시 관악구 신원동 412-38,다목적,3,130,반경 30~150미터 이내(기종따라 다름),30,Oct-13,02-879-5831,37.47776359,126.9302065,2019-04-30
관악구청,서울특별시 관악구 문성로26길 14,서울특별시 관악구 신원동 1626-22,다목적,1,130,반경 30~150미터 이내(기종따라 다름),30,Oct-13,02-879-5831,37.47830495,126.9257095,2019-04-30
관악구청,서울특별시 관악구 남부순환로170길 65,서울특별시 관악구 신원동 440-41,다목적,1,130,반경 30~150미터 이내(기종따라 다름),30,Oct-13,02-879-5831,37.4812094,126.9229284,2019-04-30
관악구청,서울특별시 관악구 신림로53가길 28,서울특별시 관악구 신원동 1634-96,다목적,1,130,반경 30~150미터 이내(기종따라 다름),30,Oct-13,02-879-5831,37.47885657,126.9311354,2019-04-30
관악구청,서울특별시 관악구 문성로 231,서울특별시 관악구 신원동 1635-118,다목적,1,130,반경 30~150미터 이내(기종따라 다름),30,Oct-13,02-879-5831,37.4792255,126.9293992,2019-04-30
관악구청,서울특별시 관악구 신림로 285,서울특별시 관악구 신원동 1634-1,다목적,1,130,반경 30~150미터 이내(기종따라 다름),30,Oct-13,02-879-5831,37.479703,126.9303851,2019-04-30
관악구청,서울특별시 관악구 양녕로 19-7,서울특별시 관악구 은천동 910-44,다목적,1,130,반경 30~150미터 이내(기종따라 다름),30,Oct-13,02-879-5831,37.4836898,126.9460176,2019-04-30
관악구청,서울특별시 관악구 국회단지11길 32,서울특별시 관악구 은천동 635-480호 코너,다목적,5,130,반경 30~150미터 이내(기종따라 다름),30,Oct-13,02-879-5831,37.4891181,126.9397901,2019-04-30
관악구청,서울특별시 관악구 인헌23길 17,서울특별시 관악구 인헌동 180-196,다목적,5,130,반경 30~150미터 이내(기종따라 다름),30,Oct-13,02-879-5831,37.46981871,126.9693548,2019-04-30
관악구청,서울특별시 관악구 인헌동 180-38,서울특별시 관악구 인헌동 180-38,다목적,1,130,반경 30~150미터 이내(기종따라 다름),30,Oct-13,02-879-5831,37.47064557,126.9650928,2019-04-30
관악구청,서울특별시 관악구 낙성대역16길 29,서울특별시 관악구 인헌동 196-215,다목적,1,130,반경 30~150미터 이내(기종따라 다름),30,Oct-13,02-879-5831,37.4726525,126.964908,2019-04-30
관악구청,서울특별시 관악구 남부순환로248길 9,서울특별시 관악구 인헌동 1656-5,다목적,5,130,반경 30~150미터 이내(기종따라 다름),30,Oct-13,02-879-5831,37.4754899,126.9657247,2019-04-30
관악구청,서울특별시 관악구 인헌16나길 2,서울특별시 관악구 인헌동 180-423,다목적,3,130,반경 30~150미터 이내(기종따라 다름),30,Oct-13,02-879-5831,37.4693769,126.9656947,2019-04-30
관악구청,서울특별시 관악구 난곡로65길 2,서울특별시 관악구 조원동 537-33,다목적,5,130,반경 30~150미터 이내(기종따라 다름),30,Oct-13,02-879-5831,37.48246613,126.9140107,2019-04-30
관악구청,서울특별시 관악구 시흥대로162길 11,서울특별시 관악구 조원동 1662-13,다목적,1,130,반경 30~150미터 이내(기종따라 다름),30,Oct-13,02-879-5831,37.4813631,126.9021577,2019-04-30
관악구청,서울특별시 관악구 시흥대로158가길 34,서울특별시 관악구 조원동 1666-25,다목적,3,130,반경 30~150미터 이내(기종따라 다름),30,Oct-13,02-879-5831,37.4799944,126.9000075,2019-04-30
관악구청,서울특별시 관악구 조원중앙로 59-5,서울특별시 관악구 조원동 1649-13,다목적,1,130,반경 30~150미터 이내(기종따라 다름),30,Oct-13,02-879-5831,37.4845331,126.9076688,2019-04-30
관악구청,서울특별시 관악구 양녕로6길 93-10,서울특별시 관악구 중앙동 1519-8,다목적,1,130,반경 30~150미터 이내(기종따라 다름),30,Oct-13,02-879-5831,37.48387005,126.9518418,2019-04-30
관악구청,서울특별시 관악구 관악로 211,서울특별시 관악구 중앙동 32-2,다목적,4,130,반경 30~150미터 이내(기종따라 다름),30,Oct-13,02-879-5831,37.4839807,126.9541187,2019-04-30
관악구청,서울특별시 관악구 양녕로6다길 34,서울특별시 관악구 중앙동 1516-1,다목적,4,130,반경 30~150미터 이내(기종따라 다름),30,Oct-13,02-879-5831,37.484162,126.9510552,2019-04-30
관악구청,서울특별시 관악구 남부순환로 1814,서울특별시 관악구 청룡동 869-13,다목적,1,130,반경 30~150미터 이내(기종따라 다름),30,Oct-13,02-879-5831,37.4810002,126.9515596,2019-04-30
관악구청,서울특별시 관악구 청림3마길 27,서울특별시 관악구 청림동 1-996호 앞,다목적,1,200,반경 30~150미터 이내(기종따라 다름),30,Oct-13,02-879-5831,37.490741,126.957324,2019-04-30
관악구청,서울특별시 관악구 청림5길 70,서울특별시 관악구 청림동 1-610,다목적,1,130,반경 30~150미터 이내(기종따라 다름),30,Oct-13,02-879-5831,37.4909549,126.9600041,2019-04-30
관악구청,서울특별시 관악구 행운1다길 18,서울특별시 관악구 행운동 66-64호 코너,다목적,5,130,반경 30~150미터 이내(기종따라 다름),30,Oct-13,02-879-5831,37.481971,126.9567946,2019-04-30
관악구청,서울특별시 관악구 행운6길 18,서울특별시 관악구 행운동 100-317,다목적,5,130,반경 30~150미터 이내(기종따라 다름),30,Oct-13,02-879-5831,37.4806967,126.9607527,2019-04-30
관악구청,서울특별시 관악구 행운9길 34,서울특별시 관악구 행운동 1724-2,다목적,1,200,반경 30~150미터 이내(기종따라 다름),30,Oct-13,02-879-5831,37.4833703,126.9596505,2019-04-30
관악구청,서울특별시 관악구 남부순환로249길 21,서울특별시 관악구 행운동 1690-171,다목적,1,130,반경 30~150미터 이내(기종따라 다름),30,Oct-13,02-879-5831,37.4766356,126.9675337,2019-04-30
관악구청,서울특별시 관악구 남부순환로 1929,서울특별시 관악구 행운동 1686-31앞,다목적,1,130,반경 30~150미터 이내(기종따라 다름),30,Oct-13,02-879-5831,37.47725749,126.9635584,2019-04-30
관악구청,서울특별시 관악구 행운7길 38,서울특별시 관악구 행운동 100-423,다목적,1,130,반경 30~150미터 이내(기종따라 다름),30,Oct-13,02-879-5831,37.4829696,126.9589953,2019-04-30
관악구청,서울특별시 관악구 행운4길 47,서울특별시 관악구 행운동 1682-11호,다목적,5,130,반경 30~150미터 이내(기종따라 다름),30,Oct-13,02-879-5831,37.4792308,126.9618488,2019-04-30
관악구청,서울특별시 관악구 남부순환로247길 64,서울특별시 관악구 행운동 1690-77,다목적,1,130,반경 30~150미터 이내(기종따라 다름),30,Oct-13,02-879-5831,37.47845317,126.9657718,2019-04-30
관악구청,서울특별시 관악구 남부순환로251길 18,서울특별시 관악구 행운동 1692-1,다목적,1,130,반경 30~150미터 이내(기종따라 다름),30,Oct-13,02-879-5831,37.47614513,126.969363,2019-04-30
관악구청,서울특별시 관악구 법원단지10길 104,서울특별시 관악구 난곡동 610-310,다목적,5,130,반경 30~150미터 이내(기종따라 다름),30,Nov-13,02-879-5831,37.4754667,126.9253873,2019-04-30
관악구청,서울특별시 관악구 법원단지30길 26,서울특별시 관악구 난곡동 610-579,다목적,5,130,반경 30~150미터 이내(기종따라 다름),30,Nov-13,02-879-5831,37.4746821,126.9249011,2019-04-30
관악구청,서울특별시 관악구 난곡로34길 36,서울특별시 관악구 난곡동 624-8,다목적,3,130,반경 30~150미터 이내(기종따라 다름),30,Nov-13,02-879-5831,37.4720845,126.9209543,2019-04-30
관악구청,서울특별시 관악구 난곡로10길 14,서울특별시 관악구 난곡동 661-68,다목적,3,130,반경 30~150미터 이내(기종따라 다름),30,Nov-13,02-879-5831,37.465279,126.920375,2019-04-30
관악구청,서울특별시 관악구 난곡로15길 28,서울특별시 관악구 난곡동 698-7,다목적,1,130,반경 30~150미터 이내(기종따라 다름),30,Nov-13,02-879-5831,37.467281,126.9188778,2019-04-30
관악구청,서울특별시 관악구 난곡로31길 8,서울특별시 관악구 난곡동 707-9,다목적,2,130,반경 30~150미터 이내(기종따라 다름),30,Nov-13,02-879-5831,37.47149582,126.9192395,2019-04-30
관악구청,서울특별시 관악구 미성7길 13,서울특별시 관악구 미성동 1563-45,다목적,1,130,반경 30~150미터 이내(기종따라 다름),30,Nov-13,02-879-5831,37.4742175,126.9147791,2019-04-30
관악구청,서울특별시 관악구 난곡로64가길 39,서울특별시 관악구 미성동 1566-1,다목적,5,130,반경 30~150미터 이내(기종따라 다름),30,Nov-13,02-879-5831,37.47957721,126.9157033,2019-04-30
관악구청,서울특별시 관악구 난곡로42길 12,서울특별시 관악구 미성동 604-20,다목적,3,200,반경 30~150미터 이내(기종따라 다름),30,Nov-13,02-879-5831,37.47558184,126.9172511,2019-04-30
관악구청,서울특별시 관악구 난곡로 215,서울특별시 관악구 미성동 726-5,다목적,2,130,반경 30~150미터 이내(기종따라 다름),30,Nov-13,02-879-5831,37.4736976,126.9175293,2019-04-30
관악구청,서울특별시 관악구 문성로16가길 1 미성중학교 부근,서울특별시 관악구 미성동 750-1맞은편,다목적,3,130,반경 30~150미터 이내(기종따라 다름),30,Nov-13,02-879-5831,37.47669249,126.9136445,2019-04-30
관악구청,서울특별시 관악구 난곡로41길 13,서울특별시 관악구 미성동 756-53,다목적,2,200,반경 30~150미터 이내(기종따라 다름),30,Nov-13,02-879-5831,37.475422,126.9156289,2019-04-30
관악구청,서울특별시 관악구 장군봉7길 1,서울특별시 관악구 청룡동 1530-18,다목적,5,130,반경 30~150미터 이내(기종따라 다름),30,Nov-13,02-879-5831,37.48078001,126.9394682,2019-04-30
관악구청,서울특별시 관악구 장군봉길 85,서울특별시 관악구 청룡동 1534-39호,다목적,2,130,반경 30~150미터 이내(기종따라 다름),30,Nov-13,02-879-5831,37.4793394,126.9392203,2019-04-30
관악구청,서울특별시 관악구 쑥고개로16길 7,서울특별시 관악구 청룡동 1562-4호,다목적,5,130,반경 30~150미터 이내(기종따라 다름),30,Nov-13,02-879-5831,37.47895288,126.9444794,2019-04-30
관악구청,서울특별시 관악구 관악로11길 42,서울특별시 관악구 청룡동 1572-10,다목적,5,130,반경 30~150미터 이내(기종따라 다름),30,Nov-13,02-879-5831,37.47804325,126.9498893,2019-04-30
관악구청,서울특별시 관악구 쑥고개로22길 29,서울특별시 관악구 청룡동 1585-7,다목적,4,130,반경 30~150미터 이내(기종따라 다름),30,Nov-13,02-879-5831,37.47772266,126.9482599,2019-04-30
관악구청,서울특별시 관악구 복은길 129,서울특별시 관악구 서림동 98-427,다목적,1,130,반경 30~150미터 이내(기종따라 다름),30,Nov-13,02-879-5831,37.47512445,126.9430545,2019-04-30
관악구청,서울특별시 관악구 청룡16길 25,서울특별시 관악구 청룡동 1558-1,다목적,1,130,반경 30~150미터 이내(기종따라 다름),30,Nov-13,02-879-5831,37.4763905,126.9446913,2019-04-30
관악구청,서울특별시 관악구 관악로6길 77,서울특별시 관악구 낙성대동 1597-12,다목적,1,130,반경 30~150미터 이내(기종따라 다름),30,Feb-14,02-879-5831,37.4774659,126.9534496,2019-04-30
관악구청,서울특별시 관악구 은천로37길 26,서울특별시 관악구 성현동 41-763,다목적,3,200,반경 30~150미터 이내(기종따라 다름),30,Feb-14,02-879-5831,37.4871383,126.9547394,2019-04-30
관악구청,서울특별시 관악구 봉천로31길 9,서울특별시 관악구 은천동 933-1,다목적,1,130,반경 30~150미터 이내(기종따라 다름),30,Feb-14,02-879-5831,37.48415286,126.9413443,2019-04-30
관악구청,서울특별시 관악구 인헌4길 14,서울특별시 관악구 인헌동 1637-22,다목적,1,130,반경 30~150미터 이내(기종따라 다름),30,Feb-14,02-879-5831,37.4747597,126.9662178,2019-04-30
관악구청,서울특별시 관악구 은천로 146,서울특별시 관악구 중앙동 458-42,다목적,1,130,반경 30~150미터 이내(기종따라 다름),30,Feb-14,02-879-5831,37.4862401,126.951468,2019-04-30
관악구청,서울특별시 관악구 장군봉3길 20,서울특별시 관악구 청룡동 1525-27,다목적,1,130,반경 30~150미터 이내(기종따라 다름),30,Feb-14,02-879-5831,37.4813092,126.940716,2019-04-30
관악구청,서울특별시 관악구 법원단지14길 15,서울특별시 관악구 난곡동 610-263,다목적,5,130,반경 30~150미터 이내(기종따라 다름),30,Feb-14,02-879-5831,37.47364274,126.9219443,2019-04-30
관악구청,서울특별시 관악구 난곡로63가길 30,서울특별시 관악구 미성동 1481-21,다목적,1,130,반경 30~150미터 이내(기종따라 다름),30,Feb-14,02-879-5831,37.47967116,126.9141689,2019-04-30
관악구청,서울특별시 관악구 밤골길 19,서울특별시 관악구 삼성동 320-14,다목적,1,130,반경 30~150미터 이내(기종따라 다름),30,Feb-14,02-879-5831,37.46252183,126.9307107,2019-04-30
관악구청,서울특별시 관악구 신림로 210 은성온누리약국 부근,서울특별시 관악구 서림동 94-264,다목적,5,130,반경 30~150미터 이내(기종따라 다름),30,Feb-14,02-879-5831,37.47607086,126.9375095,2019-04-30
관악구청,서울특별시 관악구 남부순환로192길 13,서울특별시 관악구 서원동 10-29,다목적,4,200,반경 30~150미터 이내(기종따라 다름),30,Feb-14,02-879-5831,37.4840853,126.93453,2019-04-30
관악구청,서울특별시 관악구 관천로16길 22,서울특별시 관악구 신림동 1458-31,다목적,3,200,반경 30~150미터 이내(기종따라 다름),30,Feb-14,02-879-5831,37.48726963,126.9245769,2019-04-30
관악구청,서울특별시 관악구 남부순환로161나길 34,서울특별시 관악구 신사동 484-27,다목적,2,200,반경 30~150미터 이내(기종따라 다름),30,Feb-14,02-879-5831,37.4854455,126.9206955,2019-04-30
관악구청,서울특별시 관악구 문성로25길 12-15,서울특별시 관악구 신원동 1628-43,다목적,3,200,반경 30~150미터 이내(기종따라 다름),30,Feb-14,02-879-5831,37.47941581,126.9263833,2019-04-30
관악구청,서울특별시 관악구 조원중앙로2길 25,서울특별시 관악구 조원동 567-1,다목적,2,130,반경 30~150미터 이내(기종따라 다름),30,Feb-14,02-879-5831,37.4810489,126.9062423,2019-04-30
관악구청,서울특별시 관악구 은천로33길 12,서울특별시 관악구 성현동 41-421,다목적,1,130,반경 30~150미터 이내(기종따라 다름),30,May-14,02-879-5831,37.48728142,126.9522255,2019-04-30
관악구청,서울특별시 관악구 국회단지20길 15,서울특별시 관악구 은천동 635-89,다목적,4,200,반경 30~150미터 이내(기종따라 다름),30,May-14,02-879-5831,37.4899075,126.9431908,2019-04-30
관악구청,서울특별시 관악구 인헌19길 36,서울특별시 관악구 인헌동 180-180,다목적,1,130,반경 30~150미터 이내(기종따라 다름),30,May-14,02-879-5831,37.4707022,126.9700768,2019-04-30
관악구청,서울특별시 관악구 봉천로 287-1,서울특별시 관악구 보라매동 968-19,다목적,3,200,반경 30~150미터 이내(기종따라 다름),30,Jan-15,02-879-5831,37.48737883,126.9331987,2019-04-30
관악구청,서울특별시 관악구 은천로 48,서울특별시 관악구 은천동 941-1,다목적,5,200,반경 30~150미터 이내(기종따라 다름),30,Jan-15,02-879-5831,37.4859347,126.9404966,2019-04-30
관악구청,서울특별시 관악구 국회단지길 14,서울특별시 관악구 은천동 939-15,다목적,1,200,반경 30~150미터 이내(기종따라 다름),30,Jan-15,02-879-5831,37.4868028,126.939634,2019-04-30
관악구청,서울특별시 관악구 봉천로 392,서울특별시 관악구 은천동 926-23,다목적,1,200,반경 30~150미터 이내(기종따라 다름),30,Jan-15,02-879-5831,37.48292755,126.9433686,2019-04-30
관악구청,서울특별시 관악구 은천로15길 17,서울특별시 관악구 은천동 622-87,다목적,3,200,반경 30~150미터 이내(기종따라 다름),30,Jan-15,02-879-5831,37.48741929,126.9439046,2019-04-30
관악구청,서울특별시 관악구 국회단지4길 11,서울특별시 관악구 은천동 635-349,다목적,3,200,반경 30~150미터 이내(기종따라 다름),30,Jan-15,02-879-5831,37.48760995,126.9409107,2019-04-30
관악구청,서울특별시 관악구 은천로39길 93,서울특별시 관악구 성현동 41-96,다목적,1,200,반경 30~150미터 이내(기종따라 다름),30,Jan-15,02-879-5831,37.4888268,126.9531,2019-04-30
관악구청,서울특별시 관악구 은천로21길 10,서울특별시 관악구 성현동 480-107,다목적,1,200,반경 30~150미터 이내(기종따라 다름),30,Jan-15,02-879-5831,37.48735673,126.9477279,2019-04-30
관악구청,서울특별시 관악구 관악로 255-7,서울특별시 관악구 성현동 1703-6,다목적,1,200,반경 30~150미터 이내(기종따라 다름),30,Jan-15,02-879-5831,37.48714659,126.956625,2019-04-30
관악구청,서울특별시 관악구 봉천로49길 3,서울특별시 관악구 중앙동 871-63,다목적,5,200,반경 30~150미터 이내(기종따라 다름),30,Nov-18,02-879-5831,37.48255678,126.9516881,2019-04-30
관악구청,서울특별시 관악구 양녕로 16-1,서울특별시 관악구 중앙동 889-41,다목적,1,200,반경 30~150미터 이내(기종따라 다름),30,Jan-15,02-879-5831,37.48341665,126.9466139,2019-04-30
관악구청,서울특별시 관악구 청림3마길 14-1,서울특별시 관악구 청림동 1-233,다목적,3,200,반경 30~150미터 이내(기종따라 다름),30,Jan-15,02-879-5831,37.49100203,126.9580214,2019-04-30
관악구청,서울특별시 관악구 관악로24길 60 우성APT 101동 부근,서울특별시 관악구 행운동 20-20 (화단앞),다목적,5,200,반경 30~150미터 이내(기종따라 다름),30,Jan-15,02-879-5831,37.4853706,126.9573003,2019-04-30
관악구청,서울특별시 관악구 남부순환로 1951,서울특별시 관악구 행운동 1690-152,다목적,1,200,반경 30~150미터 이내(기종따라 다름),30,Jan-15,02-879-5831,37.47637211,126.9660656,2019-04-30
관악구청,서울특별시 관악구 행운5길 7-16,서울특별시 관악구 행운동 100-352,다목적,3,200,반경 30~150미터 이내(기종따라 다름),30,Jan-15,02-879-5831,37.48099316,126.9591486,2019-04-30
관악구청,서울특별시 관악구 행운1마길 24,서울특별시 관악구 행운동 62-13,다목적,1,200,반경 30~150미터 이내(기종따라 다름),30,Jan-15,02-879-5831,37.48318082,126.9552138,2019-04-30
관악구청,서울특별시 관악구 행운4길 2,서울특별시 관악구 행운동 1678-1,다목적,1,200,반경 30~150미터 이내(기종따라 다름),30,Jan-15,02-879-5831,37.4799242,126.9594971,2019-04-30
관악구청,서울특별시 관악구 남부순환로 1873,서울특별시 관악구 행운동 1674-4,다목적,5,200,반경 30~150미터 이내(기종따라 다름),30,Jan-15,02-879-5831,37.47952843,126.9579593,2019-04-30
관악구청,서울특별시 관악구 관악로13길 46,서울특별시 관악구 청룡동 877-30,다목적,1,200,반경 30~150미터 이내(기종따라 다름),30,Jan-15,02-879-5831,37.47953028,126.9496937,2019-04-30
관악구청,서울특별시 관악구 청룡1길 2,서울특별시 관악구 청룡동 895-18,다목적,1,200,반경 30~150미터 이내(기종따라 다름),30,Jan-15,02-879-5831,37.4811026,126.9463662,2019-04-30
관악구청,서울특별시 관악구 청룡길 95,서울특별시 관악구 청룡동 1578-2,다목적,1,200,반경 30~150미터 이내(기종따라 다름),30,Jan-15,02-879-5831,37.4775261,126.9457234,2019-04-30
관악구청,서울특별시 관악구 관악로10길 23,서울특별시 관악구 낙성대동 1605-6,다목적,1,200,반경 30~150미터 이내(기종따라 다름),30,Jan-15,02-879-5831,37.4769281,126.9540699,2019-04-30
관악구청,서울특별시 관악구 관악로16길 13,서울특별시 관악구 낙성대동 853-2,다목적,1,200,반경 30~150미터 이내(기종따라 다름),30,Jan-15,02-879-5831,37.48041623,126.9534554,2019-04-30
관악구청,서울특별시 관악구 봉천로 590,서울특별시 관악구 인헌동 1631-1,다목적,4,200,반경 30~150미터 이내(기종따라 다름),30,Jan-15,02-879-5831,37.4765302,126.9625619,2019-04-30
관악구청,서울특별시 관악구 인헌길 157,서울특별시 관악구 인헌동 180-242,다목적,4,200,반경 30~150미터 이내(기종따라 다름),30,Jan-15,02-879-5831,37.4688932,126.9690148,2019-04-30
관악구청,서울특별시 관악구 낙성대역14길 42,서울특별시 관악구 인헌동 196-188,다목적,3,200,반경 30~150미터 이내(기종따라 다름),30,Jan-15,02-879-5831,37.4725543,126.9630151,2019-04-30
관악구청,서울특별시 관악구 남부순환로 2004,서울특별시 관악구 남현동 1053-1,다목적,1,200,반경 30~150미터 이내(기종따라 다름),30,Jan-15,02-879-5831,37.4752741,126.9714518,2019-04-30
관악구청,서울특별시 관악구 남현7길 2,서울특별시 관악구 남현동 1078-7 (맞은편),다목적,1,200,반경 30~150미터 이내(기종따라 다름),30,Jan-15,02-879-5831,37.4733132,126.9758826,2019-04-30
관악구청,서울특별시 관악구 남부순환로 1643,서울특별시 관악구 신림동 1412-2,다목적,1,200,반경 30~150미터 이내(기종따라 다름),30,Jan-15,02-879-5831,37.48490452,126.9331347,2019-04-30
관악구청,서울특별시 관악구 관천로 64 부근,서울특별시 관악구 신림동 1463-65,다목적,5,200,반경 30~150미터 이내(기종따라 다름),30,Jan-15,02-879-5831,37.4849552,126.9255054,2019-04-30
관악구청,서울특별시 관악구 남부순환로 1539,서울특별시 관악구 신사동 465-46,다목적,1,200,반경 30~150미터 이내(기종따라 다름),30,Jan-15,02-879-5831,37.4833724,126.9215248,2019-04-30
관악구청,서울특별시 관악구 남부순환로155길 47,서울특별시 관악구 신사동 512-6,다목적,3,200,반경 30~150미터 이내(기종따라 다름),30,Jan-15,02-879-5831,37.484441,126.916679,2019-04-30
관악구청,서울특별시 관악구 조원로2길 16,서울특별시 관악구 조원동 1655-14,다목적,5,200,반경 30~150미터 이내(기종따라 다름),30,Jan-15,02-879-5831,37.482877,126.9023498,2019-04-30
관악구청,서울특별시 관악구 남부순환로 1361,서울특별시 관악구 조원동 1667-22 (농협앞),다목적,1,200,반경 30~150미터 이내(기종따라 다름),30,Jan-15,02-879-5831,37.47971516,126.9020598,2019-04-30
관악구청,서울특별시 관악구 미성동 산197-61,서울특별시 관악구 미성동 산197-61,다목적,5,200,반경 30~150미터 이내(기종따라 다름),30,Jan-15,02-879-5831,37.47778167,126.9165378,2019-04-30
관악구청,서울특별시 관악구 법원단지5나길 36,서울특별시 관악구 미성동 598-337,다목적,1,200,반경 30~150미터 이내(기종따라 다름),30,Jan-15,02-879-5831,37.4758581,126.9209147,2019-04-30
관악구청,서울특별시 관악구 미성길 15,서울특별시 관악구 미성동 1563-85,다목적,4,200,반경 30~150미터 이내(기종따라 다름),30,Nov-18,02-879-5831,37.474296,126.9159718,2019-04-30
관악구청,서울특별시 관악구 미성8길 28,서울특별시 관악구 미성동 744-16,다목적,3,200,반경 30~150미터 이내(기종따라 다름),30,Jan-15,02-879-5831,37.47392093,126.9125443,2019-04-30
관악구청,서울특별시 관악구 미성3길 4-13,서울특별시 관악구 미성동 729,다목적,2,200,반경 30~150미터 이내(기종따라 다름),30,Jan-15,02-879-5831,37.4736661,126.916004,2019-04-30
관악구청,서울특별시 관악구 법원단지31길 15,서울특별시 관악구 난곡동 610-382,다목적,4,200,반경 30~150미터 이내(기종따라 다름),30,Jan-15,02-879-5831,37.47630306,126.9238802,2019-04-30
관악구청,서울특별시 관악구 난곡로26길 10 우림시장 부근,서울특별시 관악구 난곡동 637-8,다목적,4,200,반경 30~150미터 이내(기종따라 다름),30,Jan-15,02-879-5831,37.470491,126.9204406,2019-04-30
관악구청,서울특별시 관악구 난곡로15길 10-5,서울특별시 관악구 난곡동 697-18 (맞은편),다목적,1,200,반경 30~150미터 이내(기종따라 다름),30,Jan-15,02-879-5831,37.4672591,126.919735,2019-04-30
관악구청,서울특별시 관악구 난곡로26마길 12,서울특별시 관악구 난곡동 646-141,다목적,3,200,반경 30~150미터 이내(기종따라 다름),30,Jan-15,02-879-5831,37.4680605,126.9243256,2019-04-30
관악구청,서울특별시 관악구 난곡로24길 78,서울특별시 관악구 난곡동 652-164,다목적,1,200,반경 30~150미터 이내(기종따라 다름),30,Jan-15,02-879-5831,37.4672567,126.9223328,2019-04-30
관악구청,서울특별시 관악구 난곡로 121-30,서울특별시 관악구 난곡동 693-8,다목적,3,200,반경 30~150미터 이내(기종따라 다름),30,Jan-15,02-879-5831,37.4665073,126.9196896,2019-04-30
관악구청,서울특별시 관악구 난향7길 42,서울특별시 관악구 난향동675-312,다목적,1,200,반경 30~150미터 이내(기종따라 다름),30,Jan-15,02-879-5831,37.46071529,126.9152607,2019-04-30
관악구청,서울특별시 관악구 난곡로11길 13,서울특별시 관악구 난향동685-49,다목적,3,200,반경 30~150미터 이내(기종따라 다름),30,Jan-15,02-879-5831,37.46529057,126.9186633,2019-04-30
관악구청,서울특별시 관악구 남부순환로 1668 강강술래 부근,서울특별시 관악구 서원동 10-388,다목적,5,200,반경 30~150미터 이내(기종따라 다름),30,Jan-15,02-879-5831,37.4844473,126.9358116,2019-04-30
관악구청,서울특별시 관악구 관악로28길 80,서울특별시 관악구 행운동 1724-2,다목적,4,200,반경 30~150미터 이내(기종따라 다름),30,Jan-15,02-879-5831,37.4833351,126.9589296,2019-04-30
관악구청,서울특별시 관악구 신림로48길 56,서울특별시 관악구 서원동 92-296,다목적,5,200,반경 30~150미터 이내(기종따라 다름),30,Jan-15,02-879-5831,37.4797667,126.9349957,2019-04-30
관악구청,서울특별시 관악구 신원동 1578-42,서울특별시 관악구 신원동 1578-42 (LB003앞),다목적,4,200,반경 30~150미터 이내(기종따라 다름),30,Jan-15,02-879-5831,37.48306111,126.9250294,2019-04-30
관악구청,서울특별시 관악구 신원로3마길 1,서울특별시 관악구 신원동 1590-1,다목적,1,200,반경 30~150미터 이내(기종따라 다름),30,Jan-15,02-879-5831,37.482766,126.9259394,2019-04-30
관악구청,서울특별시 관악구 문성로 194,서울특별시 관악구 신원동 433-9,다목적,4,200,반경 30~150미터 이내(기종따라 다름),30,Jan-15,02-879-5831,37.4787639,126.9252021,2019-04-30
관악구청,서울특별시 관악구 신원로4길 22,서울특별시 관악구 신원동 1635-44,다목적,1,200,반경 30~150미터 이내(기종따라 다름),30,Jan-15,02-879-5831,37.4803229,126.9286984,2019-04-30
관악구청,서울특별시 관악구 복은6길 16,서울특별시 관악구 서림동 105-29,다목적,1,200,반경 30~150미터 이내(기종따라 다름),30,Jan-15,02-879-5831,37.4738506,126.9389691,2019-04-30
관악구청,서울특별시 관악구 서림길 127,서울특별시 관악구 서림동 103-202,다목적,5,200,반경 30~150미터 이내(기종따라 다름),30,Jan-15,02-879-5831,37.4710178,126.9407689,2019-04-30
관악구청,서울특별시 관악구 신림로31길 9-18,서울특별시 관악구 서림동 408-122,다목적,1,200,반경 30~150미터 이내(기종따라 다름),30,Jan-15,02-879-5831,37.4752709,126.9349517,2019-04-30
관악구청,서울특별시 관악구 복은6길 67,서울특별시 관악구 서림동 102-29,다목적,1,200,반경 30~150미터 이내(기종따라 다름),30,Jan-15,02-879-5831,37.4736861,126.9415648,2019-04-30
관악구청,서울특별시 관악구 호암로18나길 42,서울특별시 관악구 삼성동 306-115,다목적,1,200,반경 30~150미터 이내(기종따라 다름),30,Jan-15,02-879-5831,37.46364563,126.9329743,2019-04-30
관악구청,서울특별시 관악구 신우길 11,서울특별시 관악구 삼성동 산69-18,다목적,1,200,반경 30~150미터 이내(기종따라 다름),30,Jan-15,02-879-5831,37.46142749,126.9329542,2019-04-30
관악구청,서울특별시 관악구 양지5길 25,서울특별시 관악구 삼성동 378-1,다목적,1,200,반경 30~150미터 이내(기종따라 다름),30,Jan-15,02-879-5831,37.47244692,126.9299614,2019-04-30
관악구청,서울특별시 관악구 양산2길 9-1,서울특별시 관악구 삼성동 401-18,다목적,1,200,반경 30~150미터 이내(기종따라 다름),30,Jan-15,02-879-5831,37.47418841,126.9312109,2019-04-30
관악구청,서울특별시 관악구 신림로21길 14,서울특별시 관악구 대학동 1522-11,다목적,1,200,반경 30~150미터 이내(기종따라 다름),30,Jan-15,02-879-5831,37.4697854,126.935201,2019-04-30
관악구청,서울특별시 관악구 신림로11길 151,서울특별시 관악구 대학동 산28-9,다목적,1,200,반경 30~150미터 이내(기종따라 다름),30,Jan-15,02-879-5831,37.4643612,126.9406191,2019-04-30
관악구청,서울특별시 관악구 대학14길 23,서울특별시 관악구 대학동 255-51,다목적,1,200,반경 30~150미터 이내(기종따라 다름),30,Jan-15,02-879-5831,37.4664114,126.9363488,2019-04-30
관악구청,서울특별시 관악구 봉천로23다길25-20,서울특별시 관악구 보라매동 645-132,다목적,3,200,반경 30~150미터 이내(기종따라 다름),30,Dec-15,02-879-5831,37.4878774,126.9373878,2019-04-30
관악구청,서울특별시 관악구 당곡6라길19,서울특별시 관악구 보라매동 715-100,다목적,4,200,반경 30~150미터 이내(기종따라 다름),30,Dec-15,02-879-5831,37.4933747,126.9299029,2019-04-30
관악구청,서울특별시 관악구 당곡2길103,서울특별시 관악구 보라매동 685-73,다목적,1,200,반경 30~150미터 이내(기종따라 다름),30,Dec-15,02-879-5831,37.49262464,126.9339004,2019-04-30
관악구청,서울특별시 관악구 봉천로33가길13,서울특별시 관악구 은천동 908-6,다목적,4,200,반경 30~150미터 이내(기종따라 다름),30,Dec-15,02-879-5831,37.48425361,126.9444738,2019-04-30
관악구청,서울특별시 관악구 은천로74-1,서울특별시 관악구 은천동 902-23,다목적,1,200,반경 30~150미터 이내(기종따라 다름),30,Dec-15,02-879-5831,37.4861686,126.9438685,2019-04-30
관악구청,서울특별시 관악구 국회단지6길16,서울특별시 관악구 은천동 635-356,다목적,1,200,반경 30~150미터 이내(기종따라 다름),30,Dec-15,02-879-5831,37.4878279,126.9414084,2019-04-30
관악구청,서울특별시 관악구 봉천로372,서울특별시 관악구 은천동 931-11,다목적,4,200,반경 30~150미터 이내(기종따라 다름),30,Dec-15,02-879-5831,37.483297,126.9410354,2019-04-30
관악구청,서울특별시 관악구 은천로39길43,서울특별시 관악구 성현동 41-27,다목적,5,200,반경 30~150미터 이내(기종따라 다름),30,Dec-15,02-879-5831,37.48775035,126.9553545,2019-04-30
관악구청,서울특별시 관악구 구암5길24,서울특별시 관악구 성현동 484-7,다목적,1,200,반경 30~150미터 이내(기종따라 다름),30,Dec-15,02-879-5831,37.4901238,126.9465561,2019-04-30
관악구청,서울특별시 관악구 은천로23길36,서울특별시 관악구 성현동 468-1,다목적,1,200,반경 30~150미터 이내(기종따라 다름),30,Dec-15,02-879-5831,37.48817866,126.9487686,2019-04-30
관악구청,서울특별시 관악구 은천로35다길20,서울특별시 관악구 성현동 41-154,다목적,1,200,반경 30~150미터 이내(기종따라 다름),30,Dec-15,02-879-5831,37.4873548,126.9530358,2019-04-30
관악구청,서울특별시 관악구 중앙길56,서울특별시 관악구 중앙동 56-99,다목적,1,200,반경 30~150미터 이내(기종따라 다름),30,Dec-15,02-879-5831,37.4849972,126.9517593,2019-04-30
관악구청,서울특별시 관악구 봉천로49다길46,서울특별시 관악구 중앙동 872-5,다목적,5,200,반경 30~150미터 이내(기종따라 다름),30,Dec-15,02-879-5831,37.4834347,126.9495197,2019-04-30
관악구청,서울특별시 관악구 은천로32길12,서울특별시 관악구 중앙동 41-555,다목적,2,200,반경 30~150미터 이내(기종따라 다름),30,Dec-15,02-879-5831,37.4857273,126.9522941,2019-04-30
관악구청,서울특별시 관악구 관악로30길 27,서울특별시 관악구 청림동 1-727,다목적,4,200,반경 30~150미터 이내(기종따라 다름),30,Dec-15,02-879-5831,37.4871804,126.9608381,2019-04-30
관악구청,서울특별시 관악구 청림동7-17,서울특별시 관악구 청림동 7-17,다목적,1,200,반경 30~150미터 이내(기종따라 다름),30,Dec-15,02-879-5831,37.488118,126.9581987,2019-04-30
관악구청,서울특별시 관악구 관악로24길33,서울특별시 관악구 행운동 35-2,다목적,1,200,반경 30~150미터 이내(기종따라 다름),30,Dec-15,02-879-5831,37.4846231,126.9562195,2019-04-30
관악구청,서울특별시 관악구 행운7길6,서울특별시 관악구 행운동 100-223,다목적,1,200,반경 30~150미터 이내(기종따라 다름),30,Dec-15,02-879-5831,37.48207532,126.9604141,2019-04-30
관악구청,서울특별시 관악구 남부순환로1831,서울특별시 관악구 행운동 852-5,다목적,4,200,반경 30~150미터 이내(기종따라 다름),30,Dec-15,02-879-5831,37.48118297,126.9536593,2019-04-30
관악구청,서울특별시 관악구 청룡10길42,서울특별시 관악구 보라매동 969-24,다목적,4,200,반경 30~150미터 이내(기종따라 다름),30,Dec-15,02-879-5831,37.47912163,126.94348,2019-04-30
관악구청,서울특별시 관악구 남부순환로214길40,서울특별시 관악구 청룡동 878-7,다목적,5,200,반경 30~150미터 이내(기종따라 다름),30,Dec-15,02-879-5831,37.4799111,126.9473327,2019-04-30
관악구청,서울특별시 관악구 남부순환로210길3-14,서울특별시 관악구 청룡동 913-42,다목적,1,200,반경 30~150미터 이내(기종따라 다름),30,Dec-15,02-879-5831,37.48157972,126.9455135,2019-04-30
관악구청,서울특별시 관악구 장군봉1길34,서울특별시 관악구 청룡동 1527-3,다목적,4,200,반경 30~150미터 이내(기종따라 다름),30,Dec-15,02-879-5831,37.4815854,126.9419114,2019-04-30
관악구청,서울특별시 관악구 관악로12길16,서울특별시 관악구 낙성대동 1597-10,다목적,1,200,반경 30~150미터 이내(기종따라 다름),30,Dec-15,02-879-5831,37.4779579,126.9532517,2019-04-30
관악구청,서울특별시 관악구 남부순환로226길31,서울특별시 관악구 낙성대동 1603-3,다목적,5,200,반경 30~150미터 이내(기종따라 다름),30,Dec-15,02-879-5831,37.47912447,126.9537648,2019-04-30
관악구청,서울특별시 관악구 남부순환로226길23-19,서울특별시 관악구 낙성대동 1602-34,다목적,1,200,반경 30~150미터 이내(기종따라 다름),30,Dec-15,02-879-5831,37.4795554,126.9539564,2019-04-30
관악구청,서울특별시 관악구 남부순환로246나길24,서울특별시 관악구 인헌동 1636-2,다목적,4,200,반경 30~150미터 이내(기종따라 다름),30,Dec-15,02-879-5831,37.4747097,126.9653296,2019-04-30
관악구청,서울특별시 관악구 인헌3길46,서울특별시 관악구 인헌동 1651-20,다목적,1,200,반경 30~150미터 이내(기종따라 다름),30,Dec-15,02-879-5831,37.4739392,126.9693378,2019-04-30
관악구청,서울특별시 관악구 인헌13길46,서울특별시 관악구 인헌동 178-274,다목적,4,200,반경 30~150미터 이내(기종따라 다름),30,Dec-15,02-879-5831,37.47175147,126.9687009,2019-04-30
관악구청,서울특별시 관악구 인헌9길35,서울특별시 관악구 인헌동 1646-50,다목적,4,200,반경 30~150미터 이내(기종따라 다름),30,Dec-15,02-879-5831,37.4729052,126.9695872,2019-04-30
관악구청,서울특별시 관악구 남부순환로260길83,서울특별시 관악구 남현동 1072-60,다목적,4,200,반경 30~150미터 이내(기종따라 다름),30,Dec-15,02-879-5831,37.4727836,126.972803,2019-04-30
관악구청,서울특별시 관악구 승방3길7,서울특별시 관악구 남현동 602-237,다목적,4,200,반경 30~150미터 이내(기종따라 다름),30,Dec-15,02-879-5831,37.4734089,126.9810214,2019-04-30
관악구청,서울특별시 관악구 남현1가길29,서울특별시 관악구 남현동 1086-1,다목적,4,200,반경 30~150미터 이내(기종따라 다름),30,Dec-15,02-879-5831,37.4745458,126.9778675,2019-04-30
관악구청,서울특별시 관악구 관천로20길43,서울특별시 관악구 신림동 1451-8,다목적,1,200,반경 30~150미터 이내(기종따라 다름),30,Dec-15,02-879-5831,37.48834406,126.9250677,2019-04-30
관악구청,서울특별시 관악구 신림로73길13,서울특별시 관악구 신림동 1429-29,다목적,1,200,반경 30~150미터 이내(기종따라 다름),30,Dec-15,02-879-5831,37.4890189,126.9273066,2019-04-30
관악구청,서울특별시 관악구 남부순환로187길21,서울특별시 관악구 신림동 1413-1,다목적,1,200,반경 30~150미터 이내(기종따라 다름),30,Dec-15,02-879-5831,37.4858331,126.9333133,2019-04-30
관악구청,서울특별시 관악구 조원로157,서울특별시 관악구 신사동 480-15,다목적,1,200,반경 30~150미터 이내(기종따라 다름),30,Dec-15,02-879-5831,37.48590541,126.9195921,2019-04-30
관악구청,서울특별시 관악구 관천로91,서울특별시 관악구 신사동 462-5,다목적,5,200,반경 30~150미터 이내(기종따라 다름),30,Dec-15,02-879-5831,37.4865588,126.9226232,2019-04-30
관악구청,서울특별시 관악구 신사로126,서울특별시 관악구 신사동 527-2,다목적,1,200,반경 30~150미터 이내(기종따라 다름),30,Dec-15,02-879-5831,37.488373,126.9158714,2019-04-30
관악구청,서울특별시 관악구 시흥대로158길11,서울특별시 관악구 조원동 1650-13,다목적,4,200,반경 30~150미터 이내(기종따라 다름),30,Dec-15,02-879-5831,37.48349185,126.9074101,2019-04-30
관악구청,서울특별시 관악구 조원중앙로34,서울특별시 관악구 조원동 570-8,다목적,1,200,반경 30~150미터 이내(기종따라 다름),30,Dec-15,02-879-5831,37.4822192,126.9064016,2019-04-30
관악구청,서울특별시 관악구 조원로25,서울특별시 관악구 조원동 1648(9동앞),다목적,1,200,반경 30~150미터 이내(기종따라 다름),30,Dec-15,02-879-5831,37.4839683,126.9050758,2019-04-30
관악구청,서울특별시 관악구 난곡로38길11,서울특별시 관악구 미성동 607-22,다목적,1,200,반경 30~150미터 이내(기종따라 다름),30,Dec-15,02-879-5831,37.47460981,126.9177241,2019-04-30
관악구청,서울특별시 관악구 법원단지5라길26,서울특별시 관악구 미성동 598-11,다목적,1,200,반경 30~150미터 이내(기종따라 다름),30,Dec-15,02-879-5831,37.4779346,126.9213021,2019-04-30
관악구청,서울특별시 관악구 미성동 744-3,서울특별시 관악구 미성동 744-3,다목적,5,200,반경 30~150미터 이내(기종따라 다름),30,Dec-15,02-879-5831,37.47342469,126.9126695,2019-04-30
관악구청,서울특별시 관악구 법원단지5가길84,서울특별시 관악구 미성동 610-386,다목적,4,200,반경 30~150미터 이내(기종따라 다름),30,Dec-15,02-879-5831,37.47669067,126.9234782,2019-04-30
관악구청,서울특별시 관악구 법원단지13길24,서울특별시 관악구 난곡동 610-77,다목적,4,200,반경 30~150미터 이내(기종따라 다름),30,Dec-15,02-879-5831,37.4750615,126.920656,2019-04-30
관악구청,서울특별시 관악구 난곡로26길99-15,서울특별시 관악구 난곡동 646-258,다목적,1,200,반경 30~150미터 이내(기종따라 다름),30,Dec-15,02-879-5831,37.4695184,126.9248202,2019-04-30
관악구청,서울특별시 관악구 난곡로24바길39,서울특별시 관악구 난곡동 652-13,다목적,3,200,반경 30~150미터 이내(기종따라 다름),30,Dec-15,02-879-5831,37.46720608,126.9237388,2019-04-30
관악구청,서울특별시 관악구 난곡로24길42,서울특별시 관악구 난곡동 654-6,다목적,4,200,반경 30~150미터 이내(기종따라 다름),30,Dec-15,02-879-5831,37.4683843,126.9211963,2019-04-30
관악구청,서울특별시 관악구 난향9길67,서울특별시 관악구 난향동 675-338,다목적,3,200,반경 30~150미터 이내(기종따라 다름),30,Dec-15,02-879-5831,37.4599228,126.9149258,2019-04-30
관악구청,서울특별시 관악구 난향2길5-12,서울특별시 관악구 난향동676-27,다목적,4,200,반경 30~150미터 이내(기종따라 다름),30,Dec-15,02-879-5831,37.46327738,126.9180206,2019-04-30
관악구청,서울특별시 관악구 난향9길27,서울특별시 관악구 난향동675-260,다목적,1,200,반경 30~150미터 이내(기종따라 다름),30,Dec-15,02-879-5831,37.4616289,126.9151202,2019-04-30
관악구청,서울특별시 관악구 남부순환로186길12,서울특별시 관악구 서원동 10-277,다목적,1,200,반경 30~150미터 이내(기종따라 다름),30,Dec-15,02-879-5831,37.484021,126.9331925,2019-04-30
관악구청,서울특별시 관악구 문성로40길4,서울특별시 관악구 서원동 412-456,다목적,4,200,반경 30~150미터 이내(기종따라 다름),30,Dec-15,02-879-5831,37.4781758,126.9312933,2019-04-30
관악구청,서울특별시 관악구 신림로44가길47,서울특별시 관악구 서원동 92-223,다목적,3,200,반경 30~150미터 이내(기종따라 다름),30,Dec-15,02-879-5831,37.47780202,126.9366186,2019-04-30
관악구청,서울특별시 관악구 문성로28가길16,서울특별시 관악구 신원동 1627-109,다목적,1,200,반경 30~150미터 이내(기종따라 다름),30,Dec-15,02-879-5831,37.4785751,126.9264406,2019-04-30
관악구청,서울특별시 관악구 남부순환로168가길25,서울특별시 관악구 신원동 1609-21,다목적,1,200,반경 30~150미터 이내(기종따라 다름),30,Dec-15,02-879-5831,37.48092826,126.9257505,2019-04-30
관악구청,서울특별시 관악구 신원로3마길25,서울특별시 관악구 신원동 1611-15,다목적,5,200,반경 30~150미터 이내(기종따라 다름),30,Dec-15,02-879-5831,37.48187031,126.9254924,2019-04-30
관악구청,서울특별시 관악구 신림로32길12,서울특별시 관악구 서림동 106-6,다목적,5,200,반경 30~150미터 이내(기종따라 다름),30,Dec-15,02-879-5831,37.4747641,126.9372434,2019-04-30
관악구청,서울특별시 관악구 서림6길35,서울특별시 관악구 서림동 120-92,다목적,1,200,반경 30~150미터 이내(기종따라 다름),30,Dec-15,02-879-5831,37.4724602,126.9374811,2019-04-30
관악구청,서울특별시 관악구 복은길63,서울특별시 관악구 서림동 120-36,다목적,4,200,반경 30~150미터 이내(기종따라 다름),30,Dec-15,02-879-5831,37.474716,126.9394091,2019-04-30
관악구청,서울특별시 관악구 호암로 524-18,서울특별시 관악구 삼성동 306,다목적,1,200,반경 30~150미터 이내(기종따라 다름),30,Dec-15,02-879-5831,37.46521478,126.9319652,2019-04-30
관악구청,서울특별시 관악구 성림1길2,서울특별시 관악구 삼성동 304-97,다목적,4,200,반경 30~150미터 이내(기종따라 다름),30,Dec-15,02-879-5831,37.46541612,126.9311285,2019-04-30
관악구청,서울특별시 관악구 양지2길2,서울특별시 관악구 삼성동 391-47,다목적,1,200,반경 30~150미터 이내(기종따라 다름),30,Dec-15,02-879-5831,37.47119183,126.9320366,2019-04-30
관악구청,서울특별시 관악구 양지10길14-2,서울특별시 관악구 삼성동 371-1,다목적,4,200,반경 30~150미터 이내(기종따라 다름),30,Dec-15,02-879-5831,37.47065463,126.9281484,2019-04-30
관악구청,서울특별시 관악구 호암로22길32,서울특별시 관악구 대학동 1555-3,다목적,5,200,반경 30~150미터 이내(기종따라 다름),30,Dec-15,02-879-5831,37.4686603,126.9344313,2019-04-30
관악구청,서울특별시 관악구 신림로11길97-27,서울특별시 관악구 대학동 251-100,다목적,3,200,반경 30~150미터 이내(기종따라 다름),30,Dec-15,02-879-5831,37.4661254,126.9399182,2019-04-30
관악구청,서울특별시 관악구 신림로97,서울특별시 관악구 대학동 240-3,다목적,4,200,반경 30~150미터 이내(기종따라 다름),30,Dec-15,02-879-5831,37.4702615,126.9386411,2019-04-30
관악구청,서울특별시 관악구 대학7가길15,서울특별시 관악구 대학동 251-284,다목적,4,200,반경 30~150미터 이내(기종따라 다름),30,Dec-15,02-879-5831,37.46773242,126.9381963,2019-04-30
관악구청,서울특별시 관악구 관악로12길 5,서울특별시 관악구 낙성대동 1598-23,다목적,4,200,반경 30~150미터 이내(기종따라 다름),30,Dec-16,02-879-5831,37.4782112,126.9527541,2019-04-30
관악구청,서울특별시 관악구 낙성대역4길 10,서울특별시 관악구 낙성대동 215-20,다목적,5,200,반경 30~150미터 이내(기종따라 다름),30,Dec-16,02-879-5831,37.4753127,126.9612897,2019-04-30
관악구청,서울특별시 관악구 낙성대로3길 21,서울특별시 관악구 낙성대동 220-4,다목적,5,200,반경 30~150미터 이내(기종따라 다름),30,Dec-16,02-879-5831,37.4745936,126.960108,2019-04-30
관악구청,서울특별시 관악구 관악로 117(청룡초교 입구),서울특별시 관악구 청룡동 1592-17,다목적,5,200,반경 30~150미터 이내(기종따라 다름),30,Dec-16,02-879-5831,37.4755085,126.9523972,2019-04-30
관악구청,서울특별시 관악구 난곡로34나길 21,서울특별시 관악구 난곡동 1678-25,다목적,4,200,반경 30~150미터 이내(기종따라 다름),30,Dec-16,02-879-5831,37.47270899,126.9216022,2019-04-30
관악구청,서울특별시 관악구 난곡로26나길 18,서울특별시 관악구  난곡동 646-227,다목적,5,200,반경 30~150미터 이내(기종따라 다름),30,Dec-16,02-879-5831,37.469212,126.922931,2019-04-30
관악구청,서울특별시 관악구 난곡로34길 11,서울특별시 관악구 난곡동 618-7,다목적,4,200,반경 30~150미터 이내(기종따라 다름),30,Dec-16,02-879-5831,37.47264375,126.9199779,2019-04-30
관악구청,서울특별시 관악구 난우2길 9(애동유치원 부근),서울특별시 관악구 난곡동 613-13,다목적,4,200,반경 30~150미터 이내(기종따라 다름),30,Dec-16,02-879-5831,37.47332862,126.9193595,2019-04-30
관악구청,서울특별시 관악구 난향14길 30,서울특별시 관악구 난향동675-28,다목적,3,200,반경 30~150미터 이내(기종따라 다름),30,Dec-16,02-879-5831,37.4640344,126.9161259,2019-04-30
관악구청,서울특별시 관악구 난향16길 24,서울특별시 관악구 난향동675-6,다목적,1,200,반경 30~150미터 이내(기종따라 다름),30,Dec-16,02-879-5831,37.4639233,126.9157882,2019-04-30
관악구청,서울특별시 관악구 난향14길 17,서울특별시 관악구 난향동675-26,다목적,2,200,반경 30~150미터 이내(기종따라 다름),30,Dec-16,02-879-5831,37.46373895,126.9155625,2019-04-30
관악구청,서울특별시 관악구 난곡로11길 33,서울특별시 관악구 난향동685-175,다목적,5,200,반경 30~150미터 이내(기종따라 다름),30,Dec-16,02-879-5831,37.4654823,126.9175788,2019-04-30
관악구청,서울특별시 관악구 난향길 4(난향초교 입구),서울특별시 관악구 난향동668-4,다목적,4,200,반경 30~150미터 이내(기종따라 다름),30,Dec-16,02-879-5831,37.46301504,126.9186894,2019-04-30
관악구청,서울특별시 관악구 난곡로 30(휴먼시아107동 입구 과속계도),서울특별시 관악구 난향동1735-1,다목적,5,200,반경 30~150미터 이내(기종따라 다름),30,Dec-16,02-879-5831,37.4611838,126.922249,2019-04-30
관악구청,서울특별시 관악구 승방1길 87,서울특별시 관악구 남현동 602-284,다목적,4,200,반경 30~150미터 이내(기종따라 다름),30,Dec-16,02-879-5831,37.471422,126.9787116,2019-04-30
관악구청,서울특별시 관악구 과천대로 933,서울특별시 관악구 남현동 602-124,다목적,4,200,반경 30~150미터 이내(기종따라 다름),30,Dec-16,02-879-5831,37.4737526,126.9815956,2019-04-30
관악구청,서울특별시 관악구 과천대로 955(사당역 6번 출구),서울특별시 관악구 남현동 1060-11,다목적,3,200,반경 30~150미터 이내(기종따라 다름),30,Dec-16,02-879-5831,37.4759007,126.9811136,2019-04-30
관악구청,서울특별시 관악구 남현2길 46,서울특별시 관악구 남현동 1055-27,다목적,5,200,반경 30~150미터 이내(기종따라 다름),30,Dec-16,02-879-5831,37.47559313,126.9748877,2019-04-30
관악구청,서울특별시 관악구 대학18길 36,서울특별시 관악구 대학동 255-140,다목적,4,200,반경 30~150미터 이내(기종따라 다름),30,Dec-16,02-879-5831,37.46437957,126.9365905,2019-04-30
관악구청,서울특별시 관악구 신림로7가길 34,서울특별시 관악구 대학동 223-3,다목적,4,200,반경 30~150미터 이내(기종따라 다름),30,Dec-16,02-879-5831,37.4695779,126.9428953,2019-04-30
관악구청,서울특별시 관악구 호암로24길 6,서울특별시 관악구 대학동 1531-1,다목적,5,200,반경 30~150미터 이내(기종따라 다름),30,Dec-16,02-879-5831,37.4698695,126.9335323,2019-04-30
관악구청,서울특별시 관악구 난우길 29,서울특별시 관악구 미성동 606-1,다목적,4,200,반경 30~150미터 이내(기종따라 다름),30,Dec-16,02-879-5831,37.47540714,126.9178652,2019-04-30
관악구청,서울특별시 관악구 미성8길 37,서울특별시 관악구 미성동 743-4,다목적,4,200,반경 30~150미터 이내(기종따라 다름),30,Dec-16,02-879-5831,37.4736647,126.9123791,2019-04-30
관악구청,서울특별시 관악구 봉천로21가길 1,서울특별시 관악구 보라매동 660-52,다목적,4,200,반경 30~150미터 이내(기종따라 다름),30,Dec-16,02-879-5831,37.48784268,126.9343295,2019-04-30
관악구청,서울특별시 관악구 봉천로23나길 19,서울특별시 관악구 보라매동 964-26,다목적,4,200,반경 30~150미터 이내(기종따라 다름),30,Dec-16,02-879-5831,37.487034,126.9364861,2019-04-30
관악구청,서울특별시 관악구 양지길 58,서울특별시 관악구 삼성동 371-13,다목적,4,200,반경 30~150미터 이내(기종따라 다름),30,Dec-16,02-879-5831,37.47041421,126.9289896,2019-04-30
관악구청,서울특별시 관악구 원신길 39,서울특별시 관악구 삼성동 808-142,다목적,3,200,반경 30~150미터 이내(기종따라 다름),30,Jul-17,02-879-5831,37.47041946,126.9327152,2019-04-30
관악구청,서울특별시 관악구 원신길 149,서울특별시 관악구 삼성동 302-10,다목적,5,200,반경 30~150미터 이내(기종따라 다름),30,Dec-16,02-879-5831,37.46636707,126.9302078,2019-04-30
관악구청,서울특별시 관악구 서림3길 23,서울특별시 관악구 서림동 103-43,다목적,5,200,반경 30~150미터 이내(기종따라 다름),30,Dec-16,02-879-5831,37.4732285,126.9401322,2019-04-30
관악구청,서울특별시 관악구 쑥고개로2길 47,서울특별시 관악구 서림동 1564-75,다목적,4,200,반경 30~150미터 이내(기종따라 다름),30,Dec-16,02-879-5831,37.4754614,126.9395353,2019-04-30
관악구청,서울특별시 관악구 복은6길 37,서울특별시 관악구 서림동 102-9,다목적,5,200,반경 30~150미터 이내(기종따라 다름),30,Dec-16,02-879-5831,37.47396367,126.9401593,2019-04-30
관악구청,서울특별시 관악구 양산길 7(하늘유치원 부근),서울특별시 관악구 서림동 403-11,다목적,3,200,반경 30~150미터 이내(기종따라 다름),30,Dec-16,02-879-5831,37.47418942,126.9329671,2019-04-30
관악구청,서울특별시 관악구 없음(신대방역 자전거보관소),서울특별시 관악구 신사동 499,다목적,1,200,반경 30~150미터 이내(기종따라 다름),30,Dec-16,02-879-5831,37.48743076,126.913521,2019-04-30
관악구청,서울특별시 관악구 남부순환로184가길 35,서울특별시 관악구 서원동 10-244,다목적,4,200,반경 30~150미터 이내(기종따라 다름),30,Dec-16,02-879-5831,37.4830365,126.9328386,2019-04-30
관악구청,서울특별시 관악구 남부순환로184가길 26,서울특별시 관악구 서원동 10-720,다목적,3,200,반경 30~150미터 이내(기종따라 다름),30,Dec-16,02-879-5831,37.4831018,126.93239,2019-04-30
관악구청,서울특별시 관악구 서원10길 17-1,서울특별시 관악구 서원동 409-392,다목적,2,200,반경 30~150미터 이내(기종따라 다름),30,Dec-16,02-879-5831,37.47595091,126.9313428,2019-04-30
관악구청,서울특별시 관악구 문성로38길 63-17,서울특별시 관악구 서원동 412-328,다목적,2,200,반경 30~150미터 이내(기종따라 다름),30,Dec-16,02-879-5831,37.4757287,126.9311031,2019-04-30
관악구청,서울특별시 관악구 문성로38길 69-11,서울특별시 관악구 서원동 412-369,다목적,1,200,반경 30~150미터 이내(기종따라 다름),30,Dec-16,02-879-5831,37.47543958,126.9307619,2019-04-30
관악구청,서울특별시 관악구 남부순환로194길 81,서울특별시 관악구 서원동 10-602,다목적,3,200,반경 30~150미터 이내(기종따라 다름),30,Dec-16,02-879-5831,37.48132503,126.9341533,2019-04-30
관악구청,서울특별시 관악구 양녕로16길 50,서울특별시 관악구 성현동 1699-3,다목적,2,200,반경 30~150미터 이내(기종따라 다름),30,Dec-16,02-879-5831,37.4916245,126.9451882,2019-04-30
관악구청,서울특별시 관악구 구암5가길 47,서울특별시 관악구 성현동 1699-1,다목적,4,200,반경 30~150미터 이내(기종따라 다름),30,Dec-16,02-879-5831,37.49214063,126.9461117,2019-04-30
관악구청,서울특별시 관악구 신림로70길 11,서울특별시 관악구 신림동 1427-14,다목적,5,200,반경 30~150미터 이내(기종따라 다름),30,Dec-16,02-879-5831,37.48773553,126.9295451,2019-04-30
관악구청,서울특별시 관악구 봉천로 190,서울특별시 관악구 신림동 1445-14,다목적,5,200,반경 30~150미터 이내(기종따라 다름),30,Dec-16,02-879-5831,37.4895815,126.9225911,2019-04-30
관악구청,서울특별시 관악구 신사로22길 45,서울특별시 관악구 신사동 476-22,다목적,1,200,반경 30~150미터 이내(기종따라 다름),30,Dec-16,02-879-5831,37.48728787,126.9182641,2019-04-30
