안전비상벨관리번호,설치목적,설치장소유형,설치위치,소재지도로명주소,소재지지번주소,위도,경도,연계방식,경찰연계유무,경비업체연계유무,관리사무소연계유무,부가기능,안전비상벨설치년도,최종점검일자,최종점검결과구분,관리기관명,관리기관전화번호,데이터기준일자
생활방범-001,1,5,광장동 266,서울특별시 광진구 광장로3길 22 (광장동 미도빌라),서울특별시 광진구 광장동 266,37.548589,127.103006,3,N,N,N,경보음+CCTV,2017,2019-02-28,Y,서울특별시 광진구청,02-450-5100,2019-03-08
생활방범-002,1,5,광장동 554,서울특별시 광진구 아차산로70길 35 (광장동),서울특별시 광진구 광장동 554,37.541144,127.103301,3,N,N,N,경보음+CCTV,2017,2019-02-28,Y,서울특별시 광진구청,02-450-5100,2019-03-08
생활방범-003,1,5,광장동 570,서울특별시 광진구 아차산로 540 (광장동 상록타워포철사원임대아파트),서울특별시 광진구 광장동 570,37.542522,127.101472,3,N,N,N,경보음+CCTV,2017,2019-02-28,Y,서울특별시 광진구청,02-450-5100,2019-03-08
생활방범-004,1,5,광장동 107-1,서울특별시 광진구 아차산로78길 53 (광장동 동북아 스위트힐아파트),서울특별시 광진구 광장동 107-1,37.551522,127.109833,3,N,N,N,경보음+CCTV,2017,2019-02-28,Y,서울특별시 광진구청,02-450-5100,2019-03-08
생활방범-005,1,5,광장동 148-6,서울특별시 광진구 아차산로 636 (광장동),서울특별시 광진구 광장동 148-6,37.548995,127.10899,3,N,N,N,경보음+CCTV,2017,2019-02-28,Y,서울특별시 광진구청,02-450-5100,2019-03-08
생활방범-006,1,5,광장동 244-18,서울특별시 광진구 천호대로 809 (광장동),서울특별시 광진구 광장동 244-18,37.545957,127.103591,3,N,N,N,경보음+CCTV,2017,2019-02-28,Y,서울특별시 광진구청,02-450-5100,2019-03-08
생활방범-007,1,5,광장동 248-19,서울특별시 광진구 아차산로75길 25 (광장동 코지하우스),서울특별시 광진구 광장동 248-19,37.546843,127.10344,3,N,N,N,경보음+CCTV,2017,2019-02-28,Y,서울특별시 광진구청,02-450-5100,2019-03-08
생활방범-008,1,5,광장동 320-8,서울특별시 광진구 아차산로76길 19 (광장동),서울특별시 광진구 광장동 320-8,37.547552,127.107957,3,N,N,N,경보음+CCTV,2017,2019-02-28,Y,서울특별시 광진구청,02-450-5100,2019-03-08
생활방범-009,1,5,광장동 323-7,서울특별시 광진구 아차산로78길 176 (광장동),서울특별시 광진구 광장동 323-7,37.548102,127.108064,3,N,N,N,경보음+CCTV,2017,2019-02-28,Y,서울특별시 광진구청,02-450-5100,2019-03-08
생활방범-010,1,5,광장동 370-5,서울특별시 광진구 광장로1다길 60 (광장동),서울특별시 광진구 광장동 370-5,37.550878,127.101337,3,N,N,N,경보음+CCTV,2017,2019-02-28,Y,서울특별시 광진구청,02-450-5100,2019-03-08
생활방범-011,1,5,광장동 393-6,서울특별시 광진구 광장로1나길 16 (광장동),서울특별시 광진구 광장동 393-6,37.548844,127.10184,3,N,N,N,경보음+CCTV,2017,2019-02-28,Y,서울특별시 광진구청,02-450-5100,2019-03-08
생활방범-012,1,5,광장동 401-17,서울특별시 광진구 광장로 1 (광장동),서울특별시 광진구 광장동 401-17,37.54551,127.097798,3,N,N,N,경보음+CCTV,2017,2019-02-28,Y,서울특별시 광진구청,02-450-5100,2019-03-08
생활방범-013,1,5,광장동 458-1,서울특별시 광진구 아차산로66길 66 (광장동),서울특별시 광진구 광장동 458-1,37.54153,127.098991,3,N,N,N,경보음+CCTV,2017,2019-02-28,Y,서울특별시 광진구청,02-450-5100,2019-03-08
생활방범-014,1,5,구의1동 221-21,서울특별시 광진구 구의로 13-6 (구의동 영화빌리지),서울특별시 광진구 구의1동 221-21,37.539461,127.088957,3,N,N,N,경보음+CCTV,2017,2019-02-28,Y,서울특별시 광진구청,02-450-5100,2019-03-08
생활방범-015,1,5,구의1동 221-59,서울특별시 광진구 아차산로57길 14 (구의동),서울특별시 광진구 구의1동 221-59,37.539227,127.088314,3,N,N,N,경보음+CCTV,2017,2019-02-28,Y,서울특별시 광진구청,02-450-5100,2019-03-08
생활방범-016,1,5,구의1동 222-6,서울특별시 광진구 자양로26길 91-14 (구의동),서울특별시 광진구 구의1동 222-6,37.541078,127.089002,3,N,N,N,경보음+CCTV,2017,2019-02-28,Y,서울특별시 광진구청,02-450-5100,2019-03-08
생활방범-017,1,5,구의1동 226-10,서울특별시 광진구 광나루로40길 17 (구의동),서울특별시 광진구 구의1동 226-10,37.544116,127.089441,3,N,N,N,경보음+CCTV,2017,2019-02-28,Y,서울특별시 광진구청,02-450-5100,2019-03-08
생활방범-018,1,5,구의1동 226-18,서울특별시 광진구 자양로30길 79 (구의동),서울특별시 광진구 구의1동 226-18,37.543128,127.089311,3,N,N,N,경보음+CCTV,2017,2019-02-28,Y,서울특별시 광진구청,02-450-5100,2019-03-08
생활방범-019,1,5,구의1동 226-2,서울특별시 광진구 구의로 65 (구의동 KS홈타운),서울특별시 광진구 구의1동 226-2,37.544036,127.090396,3,N,N,N,경보음+CCTV,2017,2019-02-28,Y,서울특별시 광진구청,02-450-5100,2019-03-08
생활방범-020,1,5,구의1동 226-20,서울특별시 광진구 자양로30길 87-10 (구의동),서울특별시 광진구 구의1동 226-20,37.543562,127.089815,3,N,N,N,경보음+CCTV,2017,2019-02-28,Y,서울특별시 광진구청,02-450-5100,2019-03-08
생활방범-021,1,5,구의1동 231-34,서울특별시 광진구 광나루로38길 27 (구의동),서울특별시 광진구 구의1동 231-34,37.543795,127.08808,3,N,N,N,경보음+CCTV,2017,2019-02-28,Y,서울특별시 광진구청,02-450-5100,2019-03-08
생활방범-022,1,5,구의1동 231-60,서울특별시 광진구 구의로11길 28 (구의동),서울특별시 광진구 구의1동 231-60,37.543771,127.088766,3,N,N,N,경보음+CCTV,2017,2019-02-28,Y,서울특별시 광진구청,02-450-5100,2019-03-08
생활방범-023,1,5,구의1동 232-39,서울특별시 광진구 자양로30길 43 (구의동),서울특별시 광진구 구의1동 232-39,37.543481,127.087237,3,N,N,N,경보음+CCTV,2017,2019-02-28,Y,서울특별시 광진구청,02-450-5100,2019-03-08
생활방범-024,1,5,구의1동 233-14,서울특별시 광진구 자양로32길 31 (구의동),서울특별시 광진구 구의1동 233-14,37.544405,127.086601,3,N,N,N,경보음+CCTV,2017,2019-02-28,Y,서울특별시 광진구청,02-450-5100,2019-03-08
생활방범-025,1,5,구의1동 236-55,서울특별시 광진구 자양로30길 14,서울특별시 광진구 구의1동 236-55,37.543915,127.085686,3,N,N,N,경보음+CCTV,2017,2019-02-28,Y,서울특별시 광진구청,02-450-5100,2019-03-08
생활방범-026,1,5,구의1동 239-45,서울특별시 광진구 자양로28길 73 (구의동),서울특별시 광진구 구의1동 239-45,37.541818,127.088231,3,N,N,N,경보음+CCTV,2017,2019-02-28,Y,서울특별시 광진구청,02-450-5100,2019-03-08
생활방범-027,1,5,구의1동 241-9,서울특별시 광진구 자양로22길 89 (구의동),서울특별시 광진구 구의1동 241-9,37.540018,127.087852,3,N,N,N,경보음+CCTV,2017,2019-02-28,Y,서울특별시 광진구청,02-450-5100,2019-03-08
생활방범-028,1,5,구의1동 242-109,서울특별시 광진구 구의로1길 12 (구의동),서울특별시 광진구 구의1동 242-109,37.539246,127.087587,3,N,N,N,경보음+CCTV,2017,2019-02-28,Y,서울특별시 광진구청,02-450-5100,2019-03-08
생활방범-029,1,5,구의1동 242-63,서울특별시 광진구 구의로1길 26 (구의동),서울특별시 광진구 구의1동 242-63,37.539151,127.086802,3,N,N,N,경보음+CCTV,2017,2019-02-28,Y,서울특별시 광진구청,02-450-5100,2019-03-08
생활방범-030,1,5,구의1동 248-16,서울특별시 광진구 아차산로53길 77 (구의동),서울특별시 광진구 구의1동 248-16,37.540818,127.086086,3,N,N,N,경보음+CCTV,2017,2019-02-28,Y,서울특별시 광진구청,02-450-5100,2019-03-08
생활방범-031,1,5,구의1동 249-33,서울특별시 광진구 자양로26길 45-7,서울특별시 광진구 구의1동 249-33,37.541709,127.086686,3,N,N,N,경보음+CCTV,2017,2019-02-28,Y,서울특별시 광진구청,02-450-5100,2019-03-08
생활방범-032,1,5,구의1동 250-1,서울특별시 광진구 광나루로36길 68 (구의동),서울특별시 광진구 구의1동 250-1,37.542254,127.085838,3,N,N,N,경보음+CCTV,2017,2019-02-28,Y,서울특별시 광진구청,02-450-5100,2019-03-08
생활방범-033,1,5,구의1동 251-154,서울특별시 광진구 자양로26길 14 (구의동),서울특별시 광진구 구의1동 251-154,37.541892,127.084881,3,N,N,N,경보음+CCTV,2017,2019-02-28,Y,서울특별시 광진구청,02-450-5100,2019-03-08
생활방범-034,1,5,구의1동 251-72,서울특별시 광진구 아차산로49길 70 (구의동 대림파크빌),서울특별시 광진구 구의1동 251-72,37.540111,127.084191,3,N,N,N,경보음+CCTV,2017,2019-02-28,Y,서울특별시 광진구청,02-450-5100,2019-03-08
생활방범-035,1,5,구의1동 252-119,서울특별시 광진구 아차산로51길 23 (구의동),서울특별시 광진구 구의1동 252-119,37.538301,127.085022,3,N,N,N,경보음+CCTV,2017,2019-02-28,Y,서울특별시 광진구청,02-450-5100,2019-03-08
생활방범-036,1,5,구의1동 252-127,서울특별시 광진구 아차산로49길 32 (구의동),서울특별시 광진구 구의1동 252-127,37.538561,127.084382,3,N,N,N,경보음+CCTV,2017,2019-02-28,Y,서울특별시 광진구청,02-450-5100,2019-03-08
생활방범-037,1,5,구의1동 252-55,서울특별시 광진구 아차산로49길 50 (구의동),서울특별시 광진구 구의1동 252-55,37.539248,127.08429,3,N,N,N,경보음+CCTV,2017,2019-02-28,Y,서울특별시 광진구청,02-450-5100,2019-03-08
생활방범-038,1,5,구의1동 254-97,서울특별시 광진구 자양로23길 86 (구의동),서울특별시 광진구 구의1동 254-97,37.544368,127.084064,3,N,N,N,경보음+CCTV,2017,2019-02-28,Y,서울특별시 광진구청,02-450-5100,2019-03-08
생활방범-039,1,5,구의1동 257-12,서울특별시 광진구 아차산로55길 23 (구의동 신일아트빌라),서울특별시 광진구 구의1동 257-12,37.53862,127.086504,3,N,N,N,경보음+CCTV,2017,2019-02-28,Y,서울특별시 광진구청,02-450-5100,2019-03-08
생활방범-040,1,5,구의1동 257-15,서울특별시 광진구 아차산로53길 53 (구의동),서울특별시 광진구 구의1동 257-15,37.539804,127.085657,3,N,N,N,경보음+CCTV,2017,2019-02-28,Y,서울특별시 광진구청,02-450-5100,2019-03-08
생활방범-041,1,5,구의1동 257-22,서울특별시 광진구 아차산로53길 29 (구의동),서울특별시 광진구 구의1동 257-22,37.538629,127.085809,3,N,N,N,경보음+CCTV,2017,2019-02-28,Y,서울특별시 광진구청,02-450-5100,2019-03-08
생활방범-042,1,5,구의1동 257-27,서울특별시 광진구 아차산로53길 38-12 (구의동),서울특별시 광진구 구의1동 257-27,37.539234,127.086096,3,N,N,N,경보음+CCTV,2017,2019-02-28,Y,서울특별시 광진구청,02-450-5100,2019-03-08
생활방범-043,1,5,구의1동 633-17,서울특별시 광진구 광나루로30가길 9 (구의동 드림스카이빌),서울특별시 광진구 구의1동 633-17,37.544315,127.082475,3,N,N,N,경보음+CCTV,2017,2019-02-28,Y,서울특별시 광진구청,02-450-5100,2019-03-08
생활방범-044,1,5,구의2동 35-10,서울특별시 광진구 자양로44길 141-7 (구의동 태진빌리지),서울특별시 광진구 구의2동 35-10,37.551726,127.095542,3,N,N,N,경보음+CCTV,2017,2019-02-28,Y,서울특별시 광진구청,02-450-5100,2019-03-08
생활방범-045,1,5,구의2동 43-11,서울특별시 광진구 자양로44길 69 (구의동),서울특별시 광진구 구의2동 43-11,37.549875,127.094981,3,N,N,N,경보음+CCTV,2017,2019-02-28,Y,서울특별시 광진구청,02-450-5100,2019-03-08
생활방범-046,1,5,구의2동 52-9,서울특별시 광진구 자양로45길 13 (구의동 영덕주택),서울특별시 광진구 구의2동 52-9,37.551865,127.091392,3,N,N,N,경보음+CCTV,2017,2019-02-28,Y,서울특별시 광진구청,02-450-5100,2019-03-08
생활방범-047,1,5,구의2동 67-8,서울특별시 광진구 광나루로 517-10 (구의동),서울특별시 광진구 구의2동 67-8,37.545725,127.087218,3,N,N,N,경보음+CCTV,2017,2019-02-28,Y,서울특별시 광진구청,02-450-5100,2019-03-08
생활방범-048,1,5,구의2동 80-4,서울특별시 광진구 자양로37가길 10 (구의동),서울특별시 광진구 구의2동 80-4,37.547797,127.087267,3,N,N,N,경보음+CCTV,2017,2019-02-28,Y,서울특별시 광진구청,02-450-5100,2019-03-08
생활방범-049,1,5,구의2동 30-1,서울특별시 광진구 구의동 30-1 이화파크맨션,서울특별시 광진구 구의2동 30-1,37.553725,127.092861,3,N,N,N,경보음+CCTV,2017,2019-02-28,Y,서울특별시 광진구청,02-450-5100,2019-03-08
생활방범-050,1,5,구의2동 23-2,서울특별시 광진구 영화사로16가길 21 (구의동),서울특별시 광진구 구의2동 23-2,37.553742,127.095611,3,N,N,N,경보음+CCTV,2017,2019-02-28,Y,서울특별시 광진구청,02-450-5100,2019-03-08
생활방범-051,1,5,구의2동 27-4,서울특별시 광진구 자양로53길 10 (구의동),서울특별시 광진구 구의2동 27-4,37.554254,127.093355,3,N,N,N,경보음+CCTV,2017,2019-02-28,Y,서울특별시 광진구청,02-450-5100,2019-03-08
생활방범-052,1,5,구의2동 22-7,서울특별시 광진구 자양로54길 11 (구의동),서울특별시 광진구 구의2동 22-7,37.553957,127.094586,3,N,N,N,경보음+CCTV,2017,2019-02-28,Y,서울특별시 광진구청,02-450-5100,2019-03-08
생활방범-053,1,5,구의2동 28-8,서울특별시 광진구 자양로51길 10-9 (구의동),서울특별시 광진구 구의2동 28-8,37.553948,127.093433,3,N,N,N,경보음+CCTV,2017,2019-02-28,Y,서울특별시 광진구청,02-450-5100,2019-03-08
생활방범-054,1,5,구의2동 20-11,서울특별시 광진구 영화사로16길 19 (구의동),서울특별시 광진구 구의2동 20-11,37.554622,127.095947,3,N,N,N,경보음+CCTV,2017,2019-02-28,Y,서울특별시 광진구청,02-450-5100,2019-03-08
생활방범-055,1,5,구의2동 23-13,서울특별시 광진구 영화사로16나길 21 (구의동 삼성홈타운),서울특별시 광진구 구의2동 23-13,37.553305,127.096135,3,N,N,N,경보음+CCTV,2017,2019-02-28,Y,서울특별시 광진구청,02-450-5100,2019-03-08
생활방범-056,1,5,구의2동 25-25,서울특별시 광진구 자양로52길 11 (구의동),서울특별시 광진구 구의2동 25-25,37.553155,127.093947,3,N,N,N,경보음+CCTV,2017,2019-02-28,Y,서울특별시 광진구청,02-450-5100,2019-03-08
생활방범-057,1,5,구의2동 35-36,서울특별시 광진구 자양로44길 125 (구의동 상빌리지),서울특별시 광진구 구의2동 35-36,37.551399,127.09656,3,N,N,N,경보음+CCTV,2017,2019-02-28,Y,서울특별시 광진구청,02-450-5100,2019-03-08
생활방범-058,1,5,구의2동 43-24,서울특별시 광진구 자양로44나길 26-14 (구의동 대원빌라),서울특별시 광진구 구의2동 43-24,37.550972,127.095958,3,N,N,N,경보음+CCTV,2017,2019-02-28,Y,서울특별시 광진구청,02-450-5100,2019-03-08
생활방범-059,1,5,구의2동 45-25,서울특별시 광진구 자양로44나길 39 (구의동 신흥아트빌),서울특별시 광진구 구의2동 45-25,37.551659,127.094568,3,N,N,N,경보음+CCTV,2017,2019-02-28,Y,서울특별시 광진구청,02-450-5100,2019-03-08
생활방범-060,1,5,구의2동 46-28,서울특별시 광진구 천호대로137길 38 (구의동 현대아트빌),서울특별시 광진구 구의2동 46-28,37.550846,127.093683,3,N,N,N,경보음+CCTV,2017,2019-02-28,Y,서울특별시 광진구청,02-450-5100,2019-03-08
생활방범-061,1,5,구의2동 51-23,서울특별시 광진구 자양로49길 15-2 (구의동 현대아트빌라),서울특별시 광진구 구의2동 51-23,37.552977,127.091894,3,N,N,N,경보음+CCTV,2017,2019-02-28,Y,서울특별시 광진구청,02-450-5100,2019-03-08
생활방범-062,1,5,구의2동 55-18,서울특별시 광진구 자양로43길 8 (구의동),서울특별시 광진구 구의2동 55-18,37.551313,127.091069,3,N,N,N,경보음+CCTV,2017,2019-02-28,Y,서울특별시 광진구청,02-450-5100,2019-03-08
생활방범-063,1,5,구의2동 554-5,서울특별시 광진구 영화사로11길 22 (구의동 상평그린빌),서울특별시 광진구 구의2동 554-5,37.55559,127.094241,3,N,N,N,경보음+CCTV,2017,2019-02-28,Y,서울특별시 광진구청,02-450-5100,2019-03-08
생활방범-064,1,5,건너편 공원 앞에 설치,서울특별시 광진구 영화사로15길 23 (구의동),서울특별시 광진구 구의2동 553-3,37.555399,127.09516,3,N,N,N,경보음+CCTV,2017,2019-02-28,Y,서울특별시 광진구청,02-450-5100,2019-03-08
생활방범-065,1,5,구의2동 57-17,서울특별시 광진구 천호대로135길 16 (구의동),서울특별시 광진구 구의2동 57-17,37.550203,127.092241,3,N,N,N,경보음+CCTV,2017,2019-02-28,Y,서울특별시 광진구청,02-450-5100,2019-03-08
생활방범-066,1,5,구의2동 58-16,서울특별시 광진구 천호대로137길 10 (구의동),서울특별시 광진구 구의2동 58-16,37.549861,127.093151,3,N,N,N,경보음+CCTV,2017,2019-02-28,Y,서울특별시 광진구청,02-450-5100,2019-03-08
생활방범-067,1,5,구의2동 60-23,서울특별시 광진구 자양로42길 42-24 (구의동),서울특별시 광진구 구의2동 60-23,37.54802,127.091651,3,N,N,N,경보음+CCTV,2017,2019-02-28,Y,서울특별시 광진구청,02-450-5100,2019-03-08
생활방범-068,1,5,구의2동 617-3,서울특별시 광진구 자양로37길 33 (구의동 지은아트빌),서울특별시 광진구 구의2동 617-3,37.548416,127.086168,3,N,N,N,경보음+CCTV,2017,2019-02-28,Y,서울특별시 광진구청,02-450-5100,2019-03-08
생활방범-069,1,5,구의2동 618-1,서울특별시 광진구 자양로37길 21 (구의동),서울특별시 광진구 구의2동 618-1,37.548446,127.08698,3,N,N,N,경보음+CCTV,2017,2019-02-28,Y,서울특별시 광진구청,02-450-5100,2019-03-08
생활방범-070,1,5,구의2동 619-3,서울특별시 광진구 자양로33길 44 (구의동),서울특별시 광진구 구의2동 619-3,37.547922,127.086345,3,N,N,N,경보음+CCTV,2017,2019-02-28,Y,서울특별시 광진구청,02-450-5100,2019-03-08
생활방범-071,1,5,구의2동 64-33,서울특별시 광진구 천호대로134길 55 (구의동),서울특별시 광진구 구의2동 64-33,37.547317,127.088581,3,N,N,N,경보음+CCTV,2017,2019-02-28,Y,서울특별시 광진구청,02-450-5100,2019-03-08
생활방범-072,1,5,구의2동 65-15,서울특별시 광진구 자양로36길 17-12 (구의동),서울특별시 광진구 구의2동 65-15,37.546574,127.088294,3,N,N,N,경보음+CCTV,2017,2019-02-28,Y,서울특별시 광진구청,02-450-5100,2019-03-08
생활방범-073,1,5,구의2동 69-28,서울특별시 광진구 자양로36길 11 (구의동),서울특별시 광진구 구의2동 69-28,37.546359,127.087548,3,N,N,N,경보음+CCTV,2017,2019-02-28,Y,서울특별시 광진구청,02-450-5100,2019-03-08
생활방범-074,1,5,구의2동 78-38,서울특별시 광진구 천호대로132길 27-7 (구의동),서울특별시 광진구 구의2동 78-38,37.549477,127.089088,3,N,N,N,경보음+CCTV,2017,2019-02-28,Y,서울특별시 광진구청,02-450-5100,2019-03-08
생활방범-076,1,5,구의3동 203-26,서울특별시 광진구 구의동 203-26 숲속어린이집,서울특별시 광진구 구의3동 203-26,37.543916,127.091551,3,N,N,N,경보음+CCTV,2017,2019-02-28,Y,서울특별시 광진구청,02-450-5100,2019-03-08
생활방범-077,1,5,구의3동 204-32,서울특별시 광진구 구의로16길 36 (구의동 명성맨션),서울특별시 광진구 구의3동 204-32,37.543528,127.092607,3,N,N,N,경보음+CCTV,2017,2019-02-28,Y,서울특별시 광진구청,02-450-5100,2019-03-08
생활방범-078,1,5,구의3동 205-3,서울특별시 광진구 구의로16길 68 (구의동),서울특별시 광진구 구의3동 205-3,37.54243,127.093587,3,N,N,N,경보음+CCTV,2017,2019-02-28,Y,서울특별시 광진구청,02-450-5100,2019-03-08
생활방범-079,1,5,구의3동 206-10,서울특별시 광진구 광나루로52길 12 (구의동),서울특별시 광진구 구의3동 206-10,37.541359,127.094714,3,N,N,N,경보음+CCTV,2017,2019-02-28,Y,서울특별시 광진구청,02-450-5100,2019-03-08
생활방범-080,1,5,구의3동 206-12,서울특별시 광진구 아차산로65길 14 (구의동),서울특별시 광진구 구의3동 206-12,37.541055,127.094149,3,N,N,N,경보음+CCTV,2017,2019-02-28,Y,서울특별시 광진구청,02-450-5100,2019-03-08
생활방범-081,1,5,구의3동 207-40,서울특별시 광진구 구의로4길 51 (구의동),서울특별시 광진구 구의3동 207-40,37.540799,127.09224,3,N,N,N,경보음+CCTV,2017,2019-02-28,Y,서울특별시 광진구청,02-450-5100,2019-03-08
생활방범-082,1,5,구의3동 208-26,서울특별시 광진구 구의로6길 21 (구의동 뉴현대빌라),서울특별시 광진구 구의3동 208-26,37.541582,127.091043,3,N,N,N,경보음+CCTV,2017,2019-02-28,Y,서울특별시 광진구청,02-450-5100,2019-03-08
생활방범-083,1,5,구의3동 209-77,서울특별시 광진구 아차산로63길 37 (구의동 청호),서울특별시 광진구 구의3동 209-77,37.541394,127.09217,3,N,N,N,경보음+CCTV,2017,2019-02-28,Y,서울특별시 광진구청,02-450-5100,2019-03-08
생활방범-084,1,5,구의3동 210-14,서울특별시 광진구 구의로4길 40 (구의동),서울특별시 광진구 구의3동 210-14,37.540538,127.091647,3,N,N,N,경보음+CCTV,2017,2019-02-28,Y,서울특별시 광진구청,02-450-5100,2019-03-08
생활방범-085,1,5,구의3동 211-13,서울특별시 광진구 구의로4길 60 (구의동),서울특별시 광진구 구의3동 211-13,37.54117,127.092759,3,N,N,N,경보음+CCTV,2017,2019-02-28,Y,서울특별시 광진구청,02-450-5100,2019-03-08
생활방범-086,1,5,구의3동 212-32,서울특별시 광진구 광나루로52길 43 (구의동 새일빌라),서울특별시 광진구 구의3동 212-32,37.54051,127.093257,3,N,N,N,경보음+CCTV,2017,2019-02-28,Y,서울특별시 광진구청,02-450-5100,2019-03-08
생활방범-087,1,5,구의3동 218-30,서울특별시 광진구 아차산로60길 13-13 (구의동),서울특별시 광진구 구의3동 218-30,37.538446,127.092379,3,N,N,N,경보음+CCTV,2017,2019-02-28,Y,서울특별시 광진구청,02-450-5100,2019-03-08
생활방범-088,1,5,구의3동 219-15,서울특별시 광진구 광나루로52길 83 (구의동),서울특별시 광진구 구의3동 219-15,37.539417,127.091506,3,N,N,N,경보음+CCTV,2017,2019-02-28,Y,서울특별시 광진구청,02-450-5100,2019-03-08
생활방범-089,1,5,구의3동 220-46,서울특별시 광진구 아차산로59길 21-13 (구의동),서울특별시 광진구 구의3동 220-46,37.539817,127.090076,3,N,N,N,경보음+CCTV,2017,2019-02-28,Y,서울특별시 광진구청,02-450-5100,2019-03-08
생활방범-090,1,5,구의3동 223-72,서울특별시 광진구 구의로4길 7-16 (구의동),서울특별시 광진구 구의3동 223-72,37.540916,127.09014,3,N,N,N,경보음+CCTV,2017,2019-02-28,Y,서울특별시 광진구청,02-450-5100,2019-03-08
생활방범-091,1,5,구의3동 227-19,서울특별시 광진구 구의로 56 (구의동),서울특별시 광진구 구의3동 227-19,37.543001,127.090317,3,N,N,N,경보음+CCTV,2017,2019-02-28,Y,서울특별시 광진구청,02-450-5100,2019-03-08
생활방범-092,1,5,구의3동 244-1,서울특별시 광진구 아차산로59길 13 (구의동),서울특별시 광진구 구의3동 244-1,37.539569,127.090708,3,N,N,N,경보음+CCTV,2017,2019-02-28,Y,서울특별시 광진구청,02-450-5100,2019-03-08
생활방범-093,1,5,구의3동 592-42,서울특별시 광진구 뚝섬로67길 23 (구의동 한강연립),서울특별시 광진구 구의3동 592-42,37.535548,127.090628,3,N,N,N,경보음+CCTV,2017,2019-02-28,Y,서울특별시 광진구청,02-450-5100,2019-03-08
생활방범-096,1,5,군자동 17,서울특별시 광진구 천호대로104나길 8 (군자동 미리내),서울특별시 광진구 군자동 17,37.557269,127.075037,3,N,N,N,경보음+CCTV,2017,2019-02-28,Y,서울특별시 광진구청,02-450-5100,2019-03-08
생활방범-097,1,5,군자동 48-6,서울특별시 광진구 면목로 27 (군자동),서울특별시 광진구 군자동 48-6,37.556798,127.076098,3,N,N,N,경보음+CCTV,2017,2019-02-28,Y,서울특별시 광진구청,02-450-5100,2019-03-08
생활방범-098,1,5,군자동 51-4,서울특별시 광진구 면목로6길 18 (군자동),서울특별시 광진구 군자동 51-4,37.556191,127.076586,3,N,N,N,경보음+CCTV,2017,2019-02-28,Y,서울특별시 광진구청,02-450-5100,2019-03-08
생활방범-099,1,5,군자동 70-5,서울특별시 광진구 능동로27길 33 (군자동),서울특별시 광진구 군자동 70-5,37.554805,127.076577,3,N,N,N,경보음+CCTV,2017,2019-02-28,Y,서울특별시 광진구청,02-450-5100,2019-03-08
생활방범-100,1,5,군자동 71-9,서울특별시 광진구 능동로27나길 17 (군자동),서울특별시 광진구 군자동 71-9,37.554267,127.075814,3,N,N,N,경보음+CCTV,2017,2019-02-28,Y,서울특별시 광진구청,02-450-5100,2019-03-08
생활방범-101,1,5,군자동 27-10,서울특별시 광진구 능동로25길 22 (군자동),서울특별시 광진구 군자동 27-10,37.553076,127.075871,3,N,N,N,경보음+CCTV,2017,2019-02-28,Y,서울특별시 광진구청,02-450-5100,2019-03-08
생활방범-102,1,5,군자동 117-18,서울특별시 광진구 동일로52길 15-14 (군자동 월드하우스),서울특별시 광진구 군자동 117-18,37.555448,127.072537,3,N,N,N,경보음+CCTV,2017,2019-02-28,Y,서울특별시 광진구청,02-450-5100,2019-03-08
생활방범-103,1,5,군자동 125-254,서울특별시 광진구 동일로48길 14-10 (군자동),서울특별시 광진구 군자동 125-254,37.554072,127.070996,3,N,N,N,경보음+CCTV,2017,2019-02-28,Y,서울특별시 광진구청,02-450-5100,2019-03-08
생활방범-104,1,5,군자동 151-11,서울특별시 광진구 군자로15길 10-6 (군자동),서울특별시 광진구 군자동 151-11,37.554148,127.073627,3,N,N,N,경보음+CCTV,2017,2019-02-28,Y,서울특별시 광진구청,02-450-5100,2019-03-08
생활방범-105,1,5,군자동 200-1,서울특별시 광진구 능동로29가길 24 (군자동),서울특별시 광진구 군자동 200-1,37.555808,127.077913,3,N,N,N,경보음+CCTV,2017,2019-02-28,Y,서울특별시 광진구청,02-450-5100,2019-03-08
생활방범-106,1,5,군자동 27-23,서울특별시 광진구 능동로27길 9 (군자동),서울특별시 광진구 군자동 27-23,37.553921,127.07682,3,N,N,N,경보음+CCTV,2017,2019-02-28,Y,서울특별시 광진구청,02-450-5100,2019-03-08
생활방범-107,1,5,군자동 275-2,,서울특별시 광진구 군자동 275-2,37.552513,127.074969,3,N,N,N,경보음+CCTV,2017,2019-02-28,Y,서울특별시 광진구청,02-450-5100,2019-03-08
생활방범-108,1,5,군자동 346-25,,서울특별시 광진구 군자동 346-25,37.550548,127.070531,3,N,N,N,경보음+CCTV,2017,2019-02-28,Y,서울특별시 광진구청,02-450-5100,2019-03-08
생활방범-109,1,5,군자동 373-7,서울특별시 광진구 광나루로17길 14 (군자동),서울특별시 광진구 군자동 373-7,37.548461,127.072695,3,N,N,N,경보음+CCTV,2017,2019-02-28,Y,서울특별시 광진구청,02-450-5100,2019-03-08
생활방범-110,1,5,군자동 466-9,서울특별시 광진구 동일로60길 25 (군자동),서울특별시 광진구 군자동 466-9,37.558372,127.074749,3,N,N,N,경보음+CCTV,2017,2019-02-28,Y,서울특별시 광진구청,02-450-5100,2019-03-08
생활방범-111,1,5,군자동 474-11,서울특별시 광진구 군자로17길 34 (군자동),서울특별시 광진구 군자동 474-11,37.556846,127.077223,3,N,N,N,경보음+CCTV,2017,2019-02-28,Y,서울특별시 광진구청,02-450-5100,2019-03-08
생활방범-112,1,5,군자동 474-42,서울특별시 광진구 군자로 179-2 (군자동),서울특별시 광진구 군자동 474-42,37.556956,127.078125,3,N,N,N,경보음+CCTV,2017,2019-02-28,Y,서울특별시 광진구청,02-450-5100,2019-03-08
생활방범-113,1,5,능동 135-40,서울특별시 광진구 천호대로116길 88 (능동),서울특별시 광진구 능동 135-40,37.552392,127.081844,3,N,N,N,경보음+CCTV,2017,2019-02-28,Y,서울특별시 광진구청,02-450-5100,2019-03-08
생활방범-114,1,5,능동 156-2,서울특별시 광진구 능동로24길 76 (능동 포스빌),서울특별시 광진구 능동 156-2,37.553304,127.080564,3,N,N,N,경보음+CCTV,2017,2019-02-28,Y,서울특별시 광진구청,02-450-5100,2019-03-08
생활방범-115,1,5,능동 221-10,서울특별시 광진구 천호대로110길 34 (능동),서울특별시 광진구 능동 221-10,37.555896,127.079472,3,N,N,N,경보음+CCTV,2017,2019-02-28,Y,서울특별시 광진구청,02-450-5100,2019-03-08
생활방범-116,1,5,능동 223-1,서울특별시 광진구 능동로36길 12 (능동),서울특별시 광진구 능동 223-1,37.556311,127.0798,3,N,N,N,경보음+CCTV,2017,2019-02-28,Y,서울특별시 광진구청,02-450-5100,2019-03-08
생활방범-117,1,5,능동 223-38,서울특별시 광진구 능동로36길 34-4 (능동),서울특별시 광진구 능동 223-38,37.555879,127.080932,3,N,N,N,경보음+CCTV,2017,2019-02-28,Y,서울특별시 광진구청,02-450-5100,2019-03-08
생활방범-118,1,5,능동 234-1,서울특별시 광진구 천호대로112길 25 (능동),서울특별시 광진구 능동 234-1,37.555219,127.081048,3,N,N,N,경보음+CCTV,2017,2019-02-28,Y,서울특별시 광진구청,02-450-5100,2019-03-08
생활방범-119,1,5,능동 239-9,서울특별시 광진구 천호대로116길 26 (능동),서울특별시 광진구 능동 239-9,37.554208,127.08363,3,N,N,N,경보음+CCTV,2017,2019-02-28,Y,서울특별시 광진구청,02-450-5100,2019-03-08
생활방범-120,1,5,능동 240-10,서울특별시 광진구 능동로32길 82-34 (능동),서울특별시 광진구 능동 240-10,37.553125,127.082394,3,N,N,N,경보음+CCTV,2017,2019-02-28,Y,서울특별시 광진구청,02-450-5100,2019-03-08
생활방범-121,1,5,능동 242-3,서울특별시 광진구 능동로32길 102 (능동 정수아트빌),서울특별시 광진구 능동 242-3,37.552802,127.08284,3,N,N,N,경보음+CCTV,2017,2019-02-28,Y,서울특별시 광진구청,02-450-5100,2019-03-08
생활방범-122,1,5,능동 244-32,서울특별시 광진구 천호대로118길 36 (능동),서울특별시 광진구 능동 244-32,37.553262,127.084663,3,N,N,N,경보음+CCTV,2017,2019-02-28,Y,서울특별시 광진구청,02-450-5100,2019-03-08
생활방범-123,1,5,능동 245-6,서울특별시 광진구 천호대로118길 16 (능동),서울특별시 광진구 능동 245-6,37.554206,127.085234,3,N,N,N,경보음+CCTV,2017,2019-02-28,Y,서울특별시 광진구청,02-450-5100,2019-03-08
생활방범-124,1,5,능동 251-36,서울특별시 광진구 천호대로124길 86 (능동),서울특별시 광진구 능동 251-36,37.552224,127.084811,3,N,N,N,경보음+CCTV,2017,2019-02-28,Y,서울특별시 광진구청,02-450-5100,2019-03-08
생활방범-125,1,5,능동 254-11,서울특별시 광진구 천호대로120길 21 (능동),서울특별시 광진구 능동 254-11,37.553217,127.086368,3,N,N,N,경보음+CCTV,2017,2019-02-28,Y,서울특별시 광진구청,02-450-5100,2019-03-08
생활방범-126,1,5,능동 256-17,,서울특별시 광진구 능동 256-17,37.553198,127.087944,3,N,N,N,경보음+CCTV,2017,2019-02-28,Y,서울특별시 광진구청,02-450-5100,2019-03-08
생활방범-127,1,5,능동 257-25,서울특별시 광진구 천호대로122길 33 (능동),서울특별시 광진구 능동 257-25,37.552192,127.087321,3,N,N,N,경보음+CCTV,2017,2019-02-28,Y,서울특별시 광진구청,02-450-5100,2019-03-08
생활방범-128,1,5,능동 284-9,서울특별시 광진구 천호대로110길 87 (능동),서울특별시 광진구 능동 284-9,37.553699,127.078422,3,N,N,N,경보음+CCTV,2017,2019-02-28,Y,서울특별시 광진구청,02-450-5100,2019-03-08
생활방범-129,1,5,능동 313-5,서울특별시 광진구 능동로24길 41 (능동),서울특별시 광진구 능동 313-5,37.552472,127.079132,3,N,N,N,경보음+CCTV,2017,2019-02-28,Y,서울특별시 광진구청,02-450-5100,2019-03-08
생활방범-130,1,5,능동 313-7,서울특별시 광진구 능동로26길 23 (능동),서울특별시 광진구 능동 313-7,37.552773,127.078559,3,N,N,N,경보음+CCTV,2017,2019-02-28,Y,서울특별시 광진구청,02-450-5100,2019-03-08
생활방범-131,1,5,능동 320-28,서울특별시 광진구 능동로32길 16-16 (능동),서울특별시 광진구 능동 320-28,37.554681,127.07917,3,N,N,N,경보음+CCTV,2017,2019-02-28,Y,서울특별시 광진구청,02-450-5100,2019-03-08
생활방범-132,1,5,능동 367-2,,서울특별시 광진구 능동 367-2,37.554014,127.079209,3,N,N,N,경보음+CCTV,2017,2019-02-28,Y,서울특별시 광진구청,02-450-5100,2019-03-08
생활방범-133,1,5,자양1동 630,서울특별시 광진구 자양로13길 41 (자양동),서울특별시 광진구 자양1동 630,37.534453,127.081952,3,N,N,N,경보음+CCTV,2017,2019-02-28,Y,서울특별시 광진구청,02-450-5100,2019-03-08
생활방범-134,1,5,자양1동 769,서울특별시 광진구 자양로21길 35 (자양동 은하빌라),서울특별시 광진구 자양1동 769,37.539607,127.081335,3,N,N,N,경보음+CCTV,2017,2019-02-28,Y,서울특별시 광진구청,02-450-5100,2019-03-08
생활방범-135,1,5,자양1동 217-3,서울특별시 광진구 아차산로46길 23 (자양동),서울특별시 광진구 자양1동 217-3,37.536171,127.08084,3,N,N,N,경보음+CCTV,2017,2019-02-28,Y,서울특별시 광진구청,02-450-5100,2019-03-08
생활방범-136,1,5,자양1동 219-6,서울특별시 광진구 아차산로46가길 19 (자양동),서울특별시 광진구 자양1동 219-6,37.53645,127.081961,3,N,N,N,경보음+CCTV,2017,2019-02-28,Y,서울특별시 광진구청,02-450-5100,2019-03-08
생활방범-137,1,5,자양1동 612-62,서울특별시 광진구 자양로15길 6 (자양동),서울특별시 광진구 자양1동 612-62,37.536127,127.083124,3,N,N,N,경보음+CCTV,2017,2019-02-28,Y,서울특별시 광진구청,02-450-5100,2019-03-08
생활방범-138,1,5,자양1동 613-10,서울특별시 광진구 뚝섬로47길 49 (자양동),서울특별시 광진구 자양1동 613-10,37.534633,127.079483,3,N,N,N,경보음+CCTV,2017,2019-02-28,Y,서울특별시 광진구청,02-450-5100,2019-03-08
생활방범-139,1,5,자양1동 613-6,서울특별시 광진구 자양로15길 85 (자양동),서울특별시 광진구 자양1동 613-6,37.534884,127.078416,3,N,N,N,경보음+CCTV,2017,2019-02-28,Y,서울특별시 광진구청,02-450-5100,2019-03-08
생활방범-140,1,5,자양1동 616-14,서울특별시 광진구 자양로13길 100 (자양동),서울특별시 광진구 자양1동 616-14,37.532686,127.079816,3,N,N,N,경보음+CCTV,2017,2019-02-28,Y,서울특별시 광진구청,02-450-5100,2019-03-08
생활방범-141,1,5,자양1동 617-6,서울특별시 광진구 뚝섬로51길 24 (자양동),서울특별시 광진구 자양1동 617-6,37.533763,127.080094,3,N,N,N,경보음+CCTV,2017,2019-02-28,Y,서울특별시 광진구청,02-450-5100,2019-03-08
생활방범-142,1,5,자양1동 619-20,서울특별시 광진구 자양로13다길 34 (자양동),서울특별시 광진구 자양1동 619-20,37.533298,127.078125,3,N,N,N,경보음+CCTV,2017,2019-02-28,Y,서울특별시 광진구청,02-450-5100,2019-03-08
생활방범-143,1,5,자양1동 622-40,서울특별시 광진구 자양로13나길 14 (자양동),서울특별시 광진구 자양1동 622-40,37.533969,127.080398,3,N,N,N,경보음+CCTV,2017,2019-02-28,Y,서울특별시 광진구청,02-450-5100,2019-03-08
생활방범-144,1,5,자양1동 629-38,서울특별시 광진구 자양로9길 24-3 (자양동),서울특별시 광진구 자양1동 629-38,37.533973,127.082922,3,N,N,N,경보음+CCTV,2017,2019-02-28,Y,서울특별시 광진구청,02-450-5100,2019-03-08
생활방범-145,1,5,자양1동 631-34,서울특별시 광진구 자양로13길 73 (자양동),서울특별시 광진구 자양1동 631-34,37.533591,127.080961,3,N,N,N,경보음+CCTV,2017,2019-02-28,Y,서울특별시 광진구청,02-450-5100,2019-03-08
생활방범-146,1,5,자양1동 632-11,서울특별시 광진구 자양로11길 45-8 (자양동),서울특별시 광진구 자양1동 632-11,37.53351,127.082193,3,N,N,N,경보음+CCTV,2017,2019-02-28,Y,서울특별시 광진구청,02-450-5100,2019-03-08
생활방범-147,1,5,자양1동 632-34,서울특별시 광진구 자양로9길 32 (자양동),서울특별시 광진구 자양1동 632-34,37.533684,127.082787,3,N,N,N,경보음+CCTV,2017,2019-02-28,Y,서울특별시 광진구청,02-450-5100,2019-03-08
생활방범-148,1,5,자양1동 635-36,서울특별시 광진구 뚝섬로57가길 55 (자양동 현대빌라),서울특별시 광진구 자양1동 635-36,37.532479,127.080557,3,N,N,N,경보음+CCTV,2017,2019-02-28,Y,서울특별시 광진구청,02-450-5100,2019-03-08
생활방범-149,1,5,자양1동 654-16,서울특별시 광진구 뚝섬로55길 19 (자양동),서울특별시 광진구 자양1동 654-16,37.532465,127.082365,3,N,N,N,경보음+CCTV,2017,2019-02-28,Y,서울특별시 광진구청,02-450-5100,2019-03-08
생활방범-150,1,5,자양1동 767-2,서울특별시 광진구 자양로21길 14 (자양동 유동빌라),서울특별시 광진구 자양1동 767-2,37.540002,127.082255,3,N,N,N,경보음+CCTV,2017,2019-02-28,Y,서울특별시 광진구청,02-450-5100,2019-03-08
생활방범-151,1,5,자양1동 770-31,서울특별시 광진구 자양로19길 48-4 (자양동),서울특별시 광진구 자양1동 770-31,37.538548,127.080976,3,N,N,N,경보음+CCTV,2017,2019-02-28,Y,서울특별시 광진구청,02-450-5100,2019-03-08
생활방범-152,1,5,자양1동 771-31,서울특별시 광진구 자양로19길 54 (자양동),서울특별시 광진구 자양1동 771-31,37.538266,127.080467,3,N,N,N,경보음+CCTV,2017,2019-02-28,Y,서울특별시 광진구청,02-450-5100,2019-03-08
생활방범-153,1,5,자양2동 644,서울특별시 광진구 뚝섬로52마길 60 (자양동),서울특별시 광진구 자양2동 644,37.528817,127.081111,3,N,N,N,경보음+CCTV,2017,2019-02-28,Y,서울특별시 광진구청,02-450-5100,2019-03-08
생활방범-155,1,5,자양2동 677,서울특별시 광진구 자양로5길 13 (자양동),서울특별시 광진구 자양2동 677,37.531721,127.085071,3,N,N,N,경보음+CCTV,2017,2019-02-28,Y,서울특별시 광진구청,02-450-5100,2019-03-08
생활방범-156,1,5,자양2동 684,서울특별시 광진구 자양로6길 40 (자양동 대양샤인빌),서울특별시 광진구 자양2동 684,37.532861,127.087881,3,N,N,N,경보음+CCTV,2017,2019-02-28,Y,서울특별시 광진구청,02-450-5100,2019-03-08
생활방범-157,1,5,자양2동 593-14,서울특별시 광진구 뚝섬로48길 52 (자양동),서울특별시 광진구 자양2동 593-14,37.52975,127.076846,3,N,N,N,경보음+CCTV,2017,2019-02-28,Y,서울특별시 광진구청,02-450-5100,2019-03-08
생활방범-158,1,5,자양2동 604-27,서울특별시 광진구 뚝섬로50길 28 (자양동),서울특별시 광진구 자양2동 604-27,37.53127,127.077918,3,N,N,N,경보음+CCTV,2017,2019-02-28,Y,서울특별시 광진구청,02-450-5100,2019-03-08
생활방범-159,1,5,자양2동 606-45,서울특별시 광진구 자양번영로6길 67 (자양동),서울특별시 광진구 자양2동 606-45,37.531677,127.079328,3,N,N,N,경보음+CCTV,2017,2019-02-28,Y,서울특별시 광진구청,02-450-5100,2019-03-08
생활방범-160,1,5,자양2동 638-10,서울특별시 광진구 뚝섬로54길 24 (자양동 대명아트빌),서울특별시 광진구 자양2동 638-10,37.530727,127.080491,3,N,N,N,경보음+CCTV,2017,2019-02-28,Y,서울특별시 광진구청,02-450-5100,2019-03-08
생활방범-161,1,5,자양2동 639-38,서울특별시 광진구 뚝섬로54길 46 (자양동),서울특별시 광진구 자양2동 639-38,37.529768,127.079995,3,N,N,N,경보음+CCTV,2017,2019-02-28,Y,서울특별시 광진구청,02-450-5100,2019-03-08
생활방범-162,1,5,자양2동 643-20,서울특별시 광진구 뚝섬로52마길 42-15 (자양동 기산빌라트),서울특별시 광진구 자양2동 643-20,37.528053,127.080247,3,N,N,N,경보음+CCTV,2017,2019-02-28,Y,서울특별시 광진구청,02-450-5100,2019-03-08
생활방범-163,1,5,자양2동 666-28,서울특별시 광진구 자양로3길 49 (자양동),서울특별시 광진구 자양2동 666-28,37.529254,127.083911,3,N,N,N,경보음+CCTV,2017,2019-02-28,Y,서울특별시 광진구청,02-450-5100,2019-03-08
생활방범-164,1,5,자양2동 667-29,서울특별시 광진구 자양로3길 39-3 (자양동),서울특별시 광진구 자양2동 667-29,37.52995,127.084554,3,N,N,N,경보음+CCTV,2017,2019-02-28,Y,서울특별시 광진구청,02-450-5100,2019-03-08
생활방범-165,1,5,자양2동 669-10,서울특별시 광진구 자양로3가길 36 (자양동),서울특별시 광진구 자양2동 669-10,37.52874,127.085111,3,N,N,N,경보음+CCTV,2017,2019-02-28,Y,서울특별시 광진구청,02-450-5100,2019-03-08
생활방범-166,1,5,자양2동 680-10,서울특별시 광진구 자양로3가길 37 (자양동),서울특별시 광진구 자양2동 680-10,37.536502,127.08465,3,N,N,N,경보음+CCTV,2017,2019-02-28,Y,서울특별시 광진구청,02-450-5100,2019-03-08
생활방범-167,1,5,자양2동 681-24,서울특별시 광진구 뚝섬로60길 6 (자양동),서울특별시 광진구 자양2동 681-24,37.532654,127.086545,3,N,N,N,경보음+CCTV,2017,2019-02-28,Y,서울특별시 광진구청,02-450-5100,2019-03-08
생활방범-168,1,5,자양2동 686-13,서울특별시 광진구 자양로4길 12-1 (자양동),서울특별시 광진구 자양2동 686-13,37.531551,127.086798,3,N,N,N,경보음+CCTV,2017,2019-02-28,Y,서울특별시 광진구청,02-450-5100,2019-03-08
생활방범-169,1,5,자양2동 688-8,서울특별시 광진구 자양로2길 29 (자양동 행운빌라),서울특별시 광진구 자양2동 688-8,37.531613,127.088172,3,N,N,N,경보음+CCTV,2017,2019-02-28,Y,서울특별시 광진구청,02-450-5100,2019-03-08
생활방범-170,1,5,자양2동 690-41,서울특별시 광진구 자양로4나길 31 (자양동),서울특별시 광진구 자양2동 690-41,37.530531,127.087969,3,N,N,N,경보음+CCTV,2017,2019-02-28,Y,서울특별시 광진구청,02-450-5100,2019-03-08
생활방범-171,1,5,자양3동 227-119,서울특별시 광진구 자양번영로11길 4-9 (자양동),서울특별시 광진구 자양3동 227-119,37.537612,127.07668,3,N,N,N,경보음+CCTV,2017,2019-02-28,Y,서울특별시 광진구청,02-450-5100,2019-03-08
생활방범-172,1,5,자양3동 227-188,서울특별시 광진구 자양번영로11길 29,서울특별시 광진구 자양3동 227-188,37.537468,127.075075,3,N,N,N,경보음+CCTV,2017,2019-02-28,Y,서울특별시 광진구청,02-450-5100,2019-03-08
생활방범-173,1,5,자양3동 227-217,서울특별시 광진구 아차산로 288 (자양동),서울특별시 광진구 자양3동 227-217,37.538606,127.075013,3,N,N,N,경보음+CCTV,2017,2019-02-28,Y,서울특별시 광진구청,02-450-5100,2019-03-08
생활방범-174,1,5,자양3동 227-232,서울특별시 광진구 자양번영로11길 37-14 (자양동),서울특별시 광진구 자양3동 227-232,37.537038,127.07444,3,N,N,N,경보음+CCTV,2017,2019-02-28,Y,서울특별시 광진구청,02-450-5100,2019-03-08
생활방범-175,1,5,자양3동 227-244,서울특별시 광진구 자양번영로9길 6-7 (자양동),서울특별시 광진구 자양3동 227-244,37.536649,127.076186,3,N,N,N,경보음+CCTV,2017,2019-02-28,Y,서울특별시 광진구청,02-450-5100,2019-03-08
생활방범-176,1,5,자양3동 227-275,서울특별시 광진구 자양번영로7길 12-7 (자양동),서울특별시 광진구 자양3동 227-275,37.536289,127.075789,3,N,N,N,경보음+CCTV,2017,2019-02-28,Y,서울특별시 광진구청,02-450-5100,2019-03-08
생활방범-177,1,5,자양3동 227-289,서울특별시 광진구 자양번영로7길 15 (자양동),서울특별시 광진구 자양3동 227-289,37.531601,127.073521,3,N,N,N,경보음+CCTV,2017,2019-02-28,Y,서울특별시 광진구청,02-450-5100,2019-03-08
생활방범-178,1,5,자양3동 227-31,서울특별시 광진구 아차산로38길 5-16 (자양동),서울특별시 광진구 자양3동 227-31,37.538261,127.075372,3,N,N,N,경보음+CCTV,2017,2019-02-28,Y,서울특별시 광진구청,02-450-5100,2019-03-08
생활방범-179,1,5,자양3동 474-24,서울특별시 광진구 뚝섬로36가길 43 (자양동 장경로얄빌라),서울특별시 광진구 자양3동 474-24,37.531254,127.072791,3,N,N,N,경보음+CCTV,2017,2019-02-28,Y,서울특별시 광진구청,02-450-5100,2019-03-08
생활방범-180,1,5,자양3동 497-18,서울특별시 광진구 뚝섬로36길 49-8 (자양동),서울특별시 광진구 자양3동 497-18,37.532122,127.070845,3,N,N,N,경보음+CCTV,2017,2019-02-28,Y,서울특별시 광진구청,02-450-5100,2019-03-08
생활방범-181,1,5,자양3동 540-5,서울특별시 광진구 능동로8길 28 (자양동),서울특별시 광진구 자양3동 540-5,37.536111,127.070739,3,N,N,N,경보음+CCTV,2017,2019-02-28,Y,서울특별시 광진구청,02-450-5100,2019-03-08
생활방범-182,1,5,자양3동 553-314,서울특별시 광진구 능동로4길 51 (자양동 대종리버빌),서울특별시 광진구 자양3동 553-314,37.532263,127.070109,3,N,N,N,경보음+CCTV,2017,2019-02-28,Y,서울특별시 광진구청,02-450-5100,2019-03-08
생활방범-183,1,5,자양3동 553-36,서울특별시 광진구 뚝섬로36길 15 (자양동),서울특별시 광진구 자양3동 553-36,37.533762,127.071404,3,N,N,N,경보음+CCTV,2017,2019-02-28,Y,서울특별시 광진구청,02-450-5100,2019-03-08
생활방범-184,1,5,자양3동 581-12,서울특별시 광진구 자양번영로5길 16 (자양동),서울특별시 광진구 자양3동 581-12,37.532814,127.074484,3,N,N,N,경보음+CCTV,2017,2019-02-28,Y,서울특별시 광진구청,02-450-5100,2019-03-08
생활방범-185,1,5,자양3동 582-19,서울특별시 광진구 자양번영로3길 16 (자양동),서울특별시 광진구 자양3동 582-19,37.531936,127.074454,3,N,N,N,경보음+CCTV,2017,2019-02-28,Y,서울특별시 광진구청,02-450-5100,2019-03-08
생활방범-186,1,5,자양3동 588-10,서울특별시 광진구 자양번영로1길 27 (자양동),서울특별시 광진구 자양3동 588-10,37.530927,127.073419,3,N,N,N,경보음+CCTV,2017,2019-02-28,Y,서울특별시 광진구청,02-450-5100,2019-03-08
생활방범-187,1,5,자양3동 588-27,서울특별시 광진구 자양번영로3나길 40 (자양동 현대아트빌라),서울특별시 광진구 자양3동 588-27,37.530241,127.073371,3,N,N,N,경보음+CCTV,2017,2019-02-28,Y,서울특별시 광진구청,02-450-5100,2019-03-08
생활방범-188,1,5,자양4동 41-12,서울특별시 광진구 동일로10길 42 (자양동 노유아트빌),서울특별시 광진구 자양4동 41-12,37.537716,127.063993,3,N,N,N,경보음+CCTV,2017,2019-02-28,Y,서울특별시 광진구청,02-450-5100,2019-03-08
생활방범-189,1,5,자양4동 44-2,서울특별시 광진구 뚝섬로 491 (자양동),서울특별시 광진구 자양4동 44-2,37.536625,127.065192,3,N,N,N,경보음+CCTV,2017,2019-02-28,Y,서울특별시 광진구청,02-450-5100,2019-03-08
생활방범-190,1,5,자양4동 52-8,서울특별시 광진구 동일로4길 68-4 (자양동),서울특별시 광진구 자양4동 52-8,37.535426,127.064649,3,N,N,N,경보음+CCTV,2017,2019-02-28,Y,서울특별시 광진구청,02-450-5100,2019-03-08
생활방범-191,1,5,자양4동 56-3,서울특별시 광진구 뚝섬로24길 27 (자양동),서울특별시 광진구 자양4동 56-3,37.535389,127.063308,3,N,N,N,경보음+CCTV,2017,2019-02-28,Y,서울특별시 광진구청,02-450-5100,2019-03-08
생활방범-192,1,5,자양4동 57-8,서울특별시 광진구 자양강변길 73 (자양동),서울특별시 광진구 자양4동 57-8,37.532828,127.063703,3,N,N,N,경보음+CCTV,2017,2019-02-28,Y,서울특별시 광진구청,02-450-5100,2019-03-08
생활방범-193,1,5,자양4동 58-1,서울특별시 광진구 능동로3라길 16 (자양동),서울특별시 광진구 자양4동 58-1,37.534855,127.064919,3,N,N,N,경보음+CCTV,2017,2019-02-28,Y,서울특별시 광진구청,02-450-5100,2019-03-08
생활방범-194,1,5,자양4동 79-9,서울특별시 광진구 능동로3가길 12 (자양동),서울특별시 광진구 자양4동 79-9,37.533426,127.065646,3,N,N,N,경보음+CCTV,2017,2019-02-28,Y,서울특별시 광진구청,02-450-5100,2019-03-08
생활방범-195,1,5,자양4동 5-4,서울특별시 광진구 아차산로34길 43,서울특별시 광진구 자양4동 5-4,37.538364,127.068837,3,N,N,N,경보음+CCTV,2017,2019-02-28,Y,서울특별시 광진구청,02-450-5100,2019-03-08
생활방범-196,1,5,자양4동 5-6,서울특별시 광진구 아차산로32길 21 (자양동),서울특별시 광진구 자양4동 5-6,37.539095,127.06809,3,N,N,N,경보음+CCTV,2017,2019-02-28,Y,서울특별시 광진구청,02-450-5100,2019-03-08
생활방범-197,1,5,자양4동 6-20,서울특별시 광진구 아차산로30길 39 (자양동),서울특별시 광진구 자양4동 6-20,37.539031,127.066879,3,N,N,N,경보음+CCTV,2017,2019-02-28,Y,서울특별시 광진구청,02-450-5100,2019-03-08
생활방범-198,1,5,자양4동 12-1,서울특별시 광진구 동일로18길 44 (자양동),서울특별시 광진구 자양4동 12-1,37.539461,127.065269,3,N,N,N,경보음+CCTV,2017,2019-02-28,Y,서울특별시 광진구청,02-450-5100,2019-03-08
생활방범-199,1,5,자양4동 17-12,서울특별시 광진구 아차산로 200 (자양동),서울특별시 광진구 자양4동 17-12,37.54102,127.066069,3,N,N,N,경보음+CCTV,2017,2019-02-28,Y,서울특별시 광진구청,02-450-5100,2019-03-08
생활방범-200,1,5,자양4동 16-66,서울특별시 광진구 아차산로22길 27 (자양동 태언빌리지),서울특별시 광진구 자양4동 16-66,37.540749,127.06406,3,N,N,N,경보음+CCTV,2017,2019-02-28,Y,서울특별시 광진구청,02-450-5100,2019-03-08
생활방범-201,1,5,자양4동 191-1,서울특별시 광진구 자양강변길 19 (자양동),서울특별시 광진구 자양4동 191-1,37.534344,127.061102,3,N,N,N,경보음+CCTV,2017,2019-02-28,Y,서울특별시 광진구청,02-450-5100,2019-03-08
생활방범-202,1,5,자양4동 196-15,서울특별시 광진구 뚝섬로22가길 22 (자양동),서울특별시 광진구 자양4동 196-15,37.535593,127.062388,3,N,N,N,경보음+CCTV,2017,2019-02-28,Y,서울특별시 광진구청,02-450-5100,2019-03-08
생활방범-203,1,5,자양4동 197-19,서울특별시 광진구 동일로4가길 9-2 (자양동),서울특별시 광진구 자양4동 197-19,37.536017,127.062823,3,N,N,N,경보음+CCTV,2017,2019-02-28,Y,서울특별시 광진구청,02-450-5100,2019-03-08
생활방범-204,1,5,자양4동 203-10,서울특별시 광진구 동일로 34-11 (자양동),서울특별시 광진구 자양4동 203-10,37.535822,127.061252,3,N,N,N,경보음+CCTV,2017,2019-02-28,Y,서울특별시 광진구청,02-450-5100,2019-03-08
생활방범-205,1,5,자양4동 246-81,서울특별시 광진구 동일로6길 21 (자양동),서울특별시 광진구 자양4동 246-81,37.538116,127.062888,3,N,N,N,경보음+CCTV,2017,2019-02-28,Y,서울특별시 광진구청,02-450-5100,2019-03-08
생활방범-206,1,5,자양4동 249-8,서울특별시 광진구 동일로10길 5 (자양동),서울특별시 광진구 자양4동 249-8,37.538996,127.062608,3,N,N,N,경보음+CCTV,2017,2019-02-28,Y,서울특별시 광진구청,02-450-5100,2019-03-08
생활방범-207,1,5,자양4동 547-48,서울특별시 광진구 능동로9길 16-2 (자양동),서울특별시 광진구 자양4동 547-48,37.537911,127.067987,3,N,N,N,경보음+CCTV,2017,2019-02-28,Y,서울특별시 광진구청,02-450-5100,2019-03-08
생활방범-208,1,5,자양4동 553-236,서울특별시 광진구 뚝섬로32길 17 (자양동),서울특별시 광진구 자양4동 553-236,37.534795,127.06713,3,N,N,N,경보음+CCTV,2017,2019-02-28,Y,서울특별시 광진구청,02-450-5100,2019-03-08
생활방범-209,1,5,자양4동 553-517,서울특별시 광진구 뚝섬로31길 27 (자양동 경동그린맨션),서울특별시 광진구 자양4동 553-517,37.536685,127.067474,3,N,N,N,경보음+CCTV,2017,2019-02-28,Y,서울특별시 광진구청,02-450-5100,2019-03-08
생활방범-210,1,5,자양4동 553-83,서울특별시 광진구 뚝섬로30길 15 (자양동),서울특별시 광진구 자양4동 553-83,37.535306,127.066555,3,N,N,N,경보음+CCTV,2017,2019-02-28,Y,서울특별시 광진구청,02-450-5100,2019-03-08
생활방범-211,1,5,자양4동 57-151,서울특별시 광진구 능동로3길 61-8 (자양동),서울특별시 광진구 자양4동 57-151,37.534185,127.06387,3,N,N,N,경보음+CCTV,2017,2019-02-28,Y,서울특별시 광진구청,02-450-5100,2019-03-08
생활방범-212,1,5,자양4동 832-3,서울특별시 광진구 동일로12길 20 (자양동),서울특별시 광진구 자양4동 832-3,37.539611,127.063351,3,N,N,N,경보음+CCTV,2017,2019-02-28,Y,서울특별시 광진구청,02-450-5100,2019-03-08
생활방범-213,1,5,자양4동 835-19,서울특별시 광진구 동일로10길 25 (자양동),서울특별시 광진구 자양4동 835-19,37.538379,127.063412,3,N,N,N,경보음+CCTV,2017,2019-02-28,Y,서울특별시 광진구청,02-450-5100,2019-03-08
생활방범-214,1,5,자양4동 840-4,서울특별시 광진구 동일로18가길 13 (자양동),서울특별시 광진구 자양4동 840-4,37.539149,127.064546,3,N,N,N,경보음+CCTV,2017,2019-02-28,Y,서울특별시 광진구청,02-450-5100,2019-03-08
생활방범-215,1,5,자양4동 842-1,서울특별시 광진구 동일로10나길 18 (자양동),서울특별시 광진구 자양4동 842-1,37.538365,127.064313,3,N,N,N,경보음+CCTV,2017,2019-02-28,Y,서울특별시 광진구청,02-450-5100,2019-03-08
생활방범-216,1,5,자양4동 842-8,서울특별시 광진구 동일로18나길 24 (자양동),서울특별시 광진구 자양4동 842-8,37.53874,127.065295,3,N,N,N,경보음+CCTV,2017,2019-02-28,Y,서울특별시 광진구청,02-450-5100,2019-03-08
생활방범-217,1,5,자양4동 844-2,서울특별시 광진구 뚝섬로23가길 11 (자양동),서울특별시 광진구 자양4동 844-2,37.538033,127.06541,3,N,N,N,경보음+CCTV,2017,2019-02-28,Y,서울특별시 광진구청,02-450-5100,2019-03-08
생활방범-221,1,5,자양1동 660-16,서울특별시 광진구 뚝섬로57길 13 (자양동),서울특별시 광진구 자양1동 660-16,37.532398,127.083593,3,N,N,N,경보음+CCTV,2017,2019-02-28,Y,서울특별시 광진구청,02-450-5100,2019-03-08
생활방범-222,1,5,중곡1동 162-22,서울특별시 광진구 긴고랑로14길 33 (중곡동 선화빌라8차),서울특별시 광진구 중곡1동 162-22,37.561316,127.080969,3,N,N,N,경보음+CCTV,2017,2019-02-28,Y,서울특별시 광진구청,02-450-5100,2019-03-08
생활방범-223,1,5,중곡1동 233-46,서울특별시 광진구 긴고랑로5길 11 (중곡동),서울특별시 광진구 중곡1동 233-46,37.565019,127.079207,3,N,N,N,경보음+CCTV,2017,2019-02-28,Y,서울특별시 광진구청,02-450-5100,2019-03-08
생활방범-224,1,5,중곡1동 238-1,서울특별시 광진구 긴고랑로1길 11 (중곡동),서울특별시 광진구 중곡1동 238-1,37.564786,127.077508,3,N,N,N,경보음+CCTV,2017,2019-02-28,Y,서울특별시 광진구청,02-450-5100,2019-03-08
생활방범-225,1,5,중곡1동 239-1,서울특별시 광진구 긴고랑로7길 11 (중곡동),서울특별시 광진구 중곡1동 239-1,37.564135,127.079378,3,N,N,N,경보음+CCTV,2017,2019-02-28,Y,서울특별시 광진구청,02-450-5100,2019-03-08
생활방범-226,1,5,중곡1동 239-61,서울특별시 광진구 동일로70길 22 (중곡동),서울특별시 광진구 중곡1동 239-61,37.564632,127.078006,3,N,N,N,경보음+CCTV,2017,2019-02-28,Y,서울특별시 광진구청,02-450-5100,2019-03-08
생활방범-227,1,5,중곡1동 242-11,서울특별시 광진구 긴고랑로14길 8 (중곡동),서울특별시 광진구 중곡1동 242-11,37.562323,127.081461,3,N,N,N,경보음+CCTV,2017,2019-02-28,Y,서울특별시 광진구청,02-450-5100,2019-03-08
생활방범-228,1,5,중곡1동 243-5,서울특별시 광진구 긴고랑로12길 12 (중곡동),서울특별시 광진구 중곡1동 243-5,37.562339,127.080684,3,N,N,N,경보음+CCTV,2017,2019-02-28,Y,서울특별시 광진구청,02-450-5100,2019-03-08
생활방범-229,1,5,중곡1동 244-27,서울특별시 광진구 능동로43길 38 (중곡동),서울특별시 광진구 중곡1동 244-27,37.56185,127.079707,3,N,N,N,경보음+CCTV,2017,2019-02-28,Y,서울특별시 광진구청,02-450-5100,2019-03-08
생활방범-230,1,5,중곡1동 245-6,서울특별시 광진구 면목로 93 (중곡동),서울특별시 광진구 중곡1동 245-6,37.562076,127.079046,3,N,N,N,경보음+CCTV,2017,2019-02-28,Y,서울특별시 광진구청,02-450-5100,2019-03-08
생활방범-231,1,5,뚝섬유원지역 1번출구,서울특별시 광진구 긴고랑로6길 9 (중곡동),서울특별시 광진구 중곡1동 246-64,37.563239,127.078221,3,N,N,N,경보음+CCTV,2017,2019-02-28,Y,서울특별시 광진구청,02-450-5100,2019-03-08
생활방범-232,1,5,중곡1동 마을마당 놀이터,서울특별시 광진구 긴고랑로4길 30 (중곡동),서울특별시 광진구 중곡1동 248-33,37.562765,127.077056,3,N,N,N,경보음+CCTV,2017,2019-02-28,Y,서울특별시 광진구청,02-450-5100,2019-03-08
생활방범-233,1,5,중곡1동 249-1,서울특별시 광진구 동일로 374 (중곡동),서울특별시 광진구 중곡1동 249-1,37.564405,127.076287,3,N,N,N,경보음+CCTV,2017,2019-02-28,Y,서울특별시 광진구청,02-450-5100,2019-03-08
생활방범-234,1,5,중곡1동 252-23,서울특별시 광진구 동일로66길 9 (중곡동),서울특별시 광진구 중곡1동 252-23,37.56175,127.075812,3,N,N,N,경보음+CCTV,2017,2019-02-28,Y,서울특별시 광진구청,02-450-5100,2019-03-08
생활방범-235,1,5,중곡1동주민센터,서울특별시 광진구 긴고랑로12길 49 (중곡동),서울특별시 광진구 중곡1동 259-10,37.5605114,127.0778587,3,N,N,N,경보음+CCTV,2017,2019-02-28,Y,서울특별시 광진구청,02-450-5100,2019-03-08
생활방범-236,1,5,중곡1동 612-3,서울특별시 광진구 천호대로101길 11 (중곡동),서울특별시 광진구 중곡1동 612-3,37.560037,127.074829,3,N,N,N,경보음+CCTV,2017,2019-02-28,Y,서울특별시 광진구청,02-450-5100,2019-03-08
생활방범-237,1,5,중곡1동 619-8,서울특별시 광진구 긴고랑로8길 60 (중곡동),서울특별시 광진구 중곡1동 619-8,37.561121,127.077723,3,N,N,N,경보음+CCTV,2017,2019-02-28,Y,서울특별시 광진구청,02-450-5100,2019-03-08
생활방범-238,1,5,중곡1동 626-11,서울특별시 광진구 긴고랑로8길 90 (중곡동),서울특별시 광진구 중곡1동 626-11,37.559748,127.077009,3,N,N,N,경보음+CCTV,2017,2019-02-28,Y,서울특별시 광진구청,02-450-5100,2019-03-08
생활방범-239,1,5,중곡1동 631-3,서울특별시 광진구 동일로62길 37 (중곡동),서울특별시 광진구 중곡1동 631-3,37.559458,127.076102,3,N,N,N,경보음+CCTV,2017,2019-02-28,Y,서울특별시 광진구청,02-450-5100,2019-03-08
생활방범-240,1,5,중곡1동 638-5,서울특별시 광진구 면목로 53 (중곡동),서울특별시 광진구 중곡1동 638-5,37.558973,127.077302,3,N,N,N,경보음+CCTV,2017,2019-02-28,Y,서울특별시 광진구청,02-450-5100,2019-03-08
생활방범-241,1,5,중곡1동 643-1,서울특별시 광진구 면목로 74 (중곡동),서울특별시 광진구 중곡1동 643-1,37.560289,127.079542,3,N,N,N,경보음+CCTV,2017,2019-02-28,Y,서울특별시 광진구청,02-450-5100,2019-03-08
생활방범-242,1,5,중곡1동 647-1,서울특별시 광진구 긴고랑로14길 63 (중곡동 삼보글로벌아파트),서울특별시 광진구 중곡1동 647-1,37.560016,127.080257,3,N,N,N,경보음+CCTV,2017,2019-02-28,Y,서울특별시 광진구청,02-450-5100,2019-03-08
생활방범-243,1,5,중곡1동 648-1,서울특별시 광진구 천호대로107길 22 (중곡동 광남캐스빌),서울특별시 광진구 중곡1동 648-1,37.558958,127.078899,3,N,N,N,경보음+CCTV,2017,2019-02-28,Y,서울특별시 광진구청,02-450-5100,2019-03-08
생활방범-244,1,5,중곡1동 649-1,서울특별시 광진구 천호대로107길 8 (중곡동 능동빌딩),서울특별시 광진구 중곡1동 649-1,37.55849,127.078541,3,N,N,N,경보음+CCTV,2017,2019-02-28,Y,서울특별시 광진구청,02-450-5100,2019-03-08
생활방범-245,1,5,중곡1동시장 123호,서울특별시 광진구 능동로47길 35 (중곡동),서울특별시 광진구 중곡1동 241-8,37.56435,127.081102,3,N,N,N,경보음+CCTV,2017,2019-02-28,Y,서울특별시 광진구청,02-450-5100,2019-03-08
생활방범-246,1,5,중곡1동시장 13호,서울특별시 광진구 능동로47길 35 (중곡동),서울특별시 광진구 중곡1동 241-8,37.563724,127.080747,3,N,N,N,경보음+CCTV,2017,2019-02-28,Y,서울특별시 광진구청,02-450-5100,2019-03-08
생활방범-247,1,5,중곡1동시장 23호,서울특별시 광진구 능동로47길 35 (중곡동),서울특별시 광진구 중곡1동 241-8,37.563466,127.081347,3,N,N,N,경보음+CCTV,2017,2019-02-28,Y,서울특별시 광진구청,02-450-5100,2019-03-08
생활방범-248,1,5,중곡2동 31-2,서울특별시 광진구 능동로50길 8 (중곡동),서울특별시 광진구 중곡2동 31-2,37.564093,127.083964,3,N,N,N,경보음+CCTV,2017,2019-02-28,Y,서울특별시 광진구청,02-450-5100,2019-03-08
생활방범-249,1,5,중곡2동 35-1,서울특별시 광진구 능동로48가길 36 (중곡동),서울특별시 광진구 중곡2동 35-1,37.563508,127.085813,3,N,N,N,경보음+CCTV,2017,2019-02-28,Y,서울특별시 광진구청,02-450-5100,2019-03-08
생활방범-250,1,5,중곡2동 35-2,서울특별시 광진구 긴고랑로29길 47 (중곡동),서울특별시 광진구 중곡2동 35-2,37.562123,127.086408,3,N,N,N,경보음+CCTV,2017,2019-02-28,Y,서울특별시 광진구청,02-450-5100,2019-03-08
생활방범-251,1,5,중곡2동 37-2,서울특별시 광진구 용마산로21길 77 (중곡동),서울특별시 광진구 중곡2동 37-2,37.561604,127.084756,3,N,N,N,경보음+CCTV,2017,2019-02-28,Y,서울특별시 광진구청,02-450-5100,2019-03-08
생활방범-252,1,5,중곡2동 118-1,서울특별시 광진구 용마산로3길 13 (중곡동),서울특별시 광진구 중곡2동 118-1,37.556397,127.087287,3,N,N,N,경보음+CCTV,2017,2019-02-28,Y,서울특별시 광진구청,02-450-5100,2019-03-08
생활방범-253,1,5,중곡2동 118-11,서울특별시 광진구 천호대로125길 35-17 (중곡동),서울특별시 광진구 중곡2동 118-11,37.555454,127.087233,3,N,N,N,경보음+CCTV,2017,2019-02-28,Y,서울특별시 광진구청,02-450-5100,2019-03-08
생활방범-254,1,5,중곡2동 118-34,서울특별시 광진구 용마산로1길 22 (중곡동),서울특별시 광진구 중곡2동 118-34,37.555112,127.087395,3,N,N,N,경보음+CCTV,2017,2019-02-28,Y,서울특별시 광진구청,02-450-5100,2019-03-08
생활방범-255,1,5,중곡2동 121-21,서울특별시 광진구 천호대로121길 39 (중곡동),서울특별시 광진구 중곡2동 121-21,37.556907,127.086436,3,N,N,N,경보음+CCTV,2017,2019-02-28,Y,서울특별시 광진구청,02-450-5100,2019-03-08
생활방범-256,1,5,중곡2동 125-11,서울특별시 광진구 긴고랑로 110 (중곡동),서울특별시 광진구 중곡2동 125-11,37.559335,127.086919,3,N,N,N,경보음+CCTV,2017,2019-02-28,Y,서울특별시 광진구청,02-450-5100,2019-03-08
생활방범-257,1,5,중곡2동 128-1,서울특별시 광진구 천호대로119길 89 (중곡동),서울특별시 광진구 중곡2동 128-1,37.559112,127.085614,3,N,N,N,경보음+CCTV,2017,2019-02-28,Y,서울특별시 광진구청,02-450-5100,2019-03-08
생활방범-258,1,5,중곡2동 129-42,서울특별시 광진구 용마산로3길 38 (중곡동),서울특별시 광진구 중곡2동 129-42,37.556237,127.086115,3,N,N,N,경보음+CCTV,2017,2019-02-28,Y,서울특별시 광진구청,02-450-5100,2019-03-08
생활방범-259,1,5,중곡2동 132-1,서울특별시 광진구 용마산로1길 91 (중곡동 열린연립주택),서울특별시 광진구 중곡2동 132-1,37.55655,127.08357,3,N,N,N,경보음+CCTV,2017,2019-02-28,Y,서울특별시 광진구청,02-450-5100,2019-03-08
생활방범-260,1,5,중곡2동 149-20,서울특별시 광진구 긴고랑로27길 26 (중곡동),서울특별시 광진구 중곡2동 149-20,37.561527,127.086138,3,N,N,N,경보음+CCTV,2017,2019-02-28,Y,서울특별시 광진구청,02-450-5100,2019-03-08
생활방범-261,1,5,중곡2동 150-118,서울특별시 광진구 긴고랑로31길 28 (중곡동),서울특별시 광진구 중곡2동 150-118,37.561281,127.087007,3,N,N,N,경보음+CCTV,2017,2019-02-28,Y,서울특별시 광진구청,02-450-5100,2019-03-08
생활방범-262,1,5,중곡2동 158-5,서울특별시 광진구 천호대로109길 13 (중곡동),서울특별시 광진구 중곡2동 158-5,37.557587,127.081049,3,N,N,N,경보음+CCTV,2017,2019-02-28,Y,서울특별시 광진구청,02-450-5100,2019-03-08
생활방범-263,1,5,중곡2동 160-3,서울특별시 광진구 천호대로109길 53 (중곡동),서울특별시 광진구 중곡2동 160-3,37.559408,127.082012,3,N,N,N,경보음+CCTV,2017,2019-02-28,Y,서울특별시 광진구청,02-450-5100,2019-03-08
생활방범-264,1,5,중곡2동 31-41,서울특별시 광진구 긴고랑로15길 15 (중곡동),서울특별시 광진구 중곡2동 31-41,37.562845,127.083296,3,N,N,N,경보음+CCTV,2017,2019-02-28,Y,서울특별시 광진구청,02-450-5100,2019-03-08
생활방범-265,1,5,중곡2동 34-45,서울특별시 광진구 긴고랑로19길 34-4 (중곡동),서울특별시 광진구 중곡2동 34-45,37.56301,127.085008,3,N,N,N,경보음+CCTV,2017,2019-02-28,Y,서울특별시 광진구청,02-450-5100,2019-03-08
생활방범-266,1,5,중곡2동 37-26,서울특별시 광진구 용마산로21길 65 (중곡동),서울특별시 광진구 중곡2동 37-26,37.562158,127.085087,3,N,N,N,경보음+CCTV,2017,2019-02-28,Y,서울특별시 광진구청,02-450-5100,2019-03-08
생활방범-267,1,5,중곡2동 43-49,서울특별시 광진구 능동로44길 13 (중곡동),서울특별시 광진구 중곡2동 43-49,37.560934,127.082298,3,N,N,N,경보음+CCTV,2017,2019-02-28,Y,서울특별시 광진구청,02-450-5100,2019-03-08
생활방범-268,1,5,중곡2동 43-56,서울특별시 광진구 긴고랑로16길 9-9 (중곡동),서울특별시 광진구 중곡2동 43-56,37.56149,127.083201,3,N,N,N,경보음+CCTV,2017,2019-02-28,Y,서울특별시 광진구청,02-450-5100,2019-03-08
생활방범-269,1,5,중곡2동 56-18,서울특별시 광진구 용마산로 134 (중곡동),서울특별시 광진구 중곡2동 56-18,37.560195,127.086749,3,N,N,N,경보음+CCTV,2017,2019-02-28,Y,서울특별시 광진구청,02-450-5100,2019-03-08
생활방범-270,1,5,중곡3동 695,서울특별시 광진구 동일로76나길 20 (중곡동),서울특별시 광진구 중곡3동 695,37.568663,127.080103,3,N,N,N,경보음+CCTV,2017,2019-02-28,Y,서울특별시 광진구청,02-450-5100,2019-03-08
생활방범-271,1,5,중곡3동 167-4,서울특별시 광진구 능동로 411 (중곡동),서울특별시 광진구 중곡3동 167-4,37.565909,127.083902,3,N,N,N,경보음+CCTV,2017,2019-02-28,Y,서울특별시 광진구청,02-450-5100,2019-03-08
생활방범-272,1,5,중곡3동 169-121,서울특별시 광진구 용마산로31길 31 (중곡동),서울특별시 광진구 중곡3동 169-121,37.569193,127.084257,3,N,N,N,경보음+CCTV,2017,2019-02-28,Y,서울특별시 광진구청,02-450-5100,2019-03-08
생활방범-273,1,5,중곡3동 171-17,서울특별시 광진구 능동로53길 24-9 (중곡동),서울특별시 광진구 중곡3동 171-17,37.567313,127.083504,3,N,N,N,경보음+CCTV,2017,2019-02-28,Y,서울특별시 광진구청,02-450-5100,2019-03-08
생활방범-274,1,5,중곡3동 171-32,서울특별시 광진구 능동로53길 30-12 (중곡동),서울특별시 광진구 중곡3동 171-32,37.56732,127.082447,3,N,N,N,경보음+CCTV,2017,2019-02-28,Y,서울특별시 광진구청,02-450-5100,2019-03-08
생활방범-275,1,5,상명장로교회,서울특별시 광진구 답십리로 78길,서울특별시 광진구 중곡3동 175-107,37.569936,127.081305,3,N,N,N,경보음+CCTV,2017,2019-02-28,Y,서울특별시 광진구청,02-450-5100,2019-03-08
생활방범-276,1,5,중곡3동 189-59,서울특별시 광진구 동일로76길 12 (중곡동),서울특별시 광진구 중곡3동 189-59,37.56779,127.079347,3,N,N,N,경보음+CCTV,2017,2019-02-28,Y,서울특별시 광진구청,02-450-5100,2019-03-08
생활방범-277,1,5,중곡3동 189-76,서울특별시 광진구 면목로11길 20 (중곡동),서울특별시 광진구 중곡3동 189-76,37.56713,127.080543,3,N,N,N,경보음+CCTV,2017,2019-02-28,Y,서울특별시 광진구청,02-450-5100,2019-03-08
생활방범-278,1,5,중곡3동 194-19,서울특별시 광진구 답십리로88길 19 (중곡동),서울특별시 광진구 중곡3동 194-19,37.570353,127.084983,3,N,N,N,경보음+CCTV,2017,2019-02-28,Y,서울특별시 광진구청,02-450-5100,2019-03-08
생활방범-279,1,5,중곡3동 194-69,서울특별시 광진구 용마산로31길 16 (중곡동),서울특별시 광진구 중곡3동 194-69,37.569426,127.08528,3,N,N,N,경보음+CCTV,2017,2019-02-28,Y,서울특별시 광진구청,02-450-5100,2019-03-08
생활방범-280,1,5,중곡3동 198-26,서울특별시 광진구 면목로16길 10 (중곡동 금성빌라),서울특별시 광진구 중곡3동 198-26,37.569618,127.083768,3,N,N,N,경보음+CCTV,2017,2019-02-28,Y,서울특별시 광진구청,02-450-5100,2019-03-08
생활방범-281,1,5,중곡3동 29-32,서울특별시 광진구 용마산로27길 10 (중곡동),서울특별시 광진구 중곡3동 29-32,37.567402,127.085828,3,N,N,N,경보음+CCTV,2017,2019-02-28,Y,서울특별시 광진구청,02-450-5100,2019-03-08
생활방범-282,1,5,중곡3동 29-48,서울특별시 광진구 용마산로29길 25 (중곡동),서울특별시 광진구 중곡3동 29-48,37.567278,127.085442,3,N,N,N,경보음+CCTV,2017,2019-02-28,Y,서울특별시 광진구청,02-450-5100,2019-03-08
생활방범-283,1,5,중곡3동 552-4,서울특별시 광진구 답십리로84길 6 (중곡동),서울특별시 광진구 중곡3동 552-4,37.571061,127.083946,3,N,N,N,경보음+CCTV,2017,2019-02-28,Y,서울특별시 광진구청,02-450-5100,2019-03-08
생활방범-284,1,5,중곡3동 566-1,서울특별시 광진구 답십리로 370 (중곡동),서울특별시 광진구 중곡3동 566-1,37.57164,127.081513,3,N,N,N,경보음+CCTV,2017,2019-02-28,Y,서울특별시 광진구청,02-450-5100,2019-03-08
생활방범-285,1,5,중곡3동 571-3,서울특별시 광진구 답십리로82길 18 (중곡동),서울특별시 광진구 중곡3동 571-3,37.570639,127.08269,3,N,N,N,경보음+CCTV,2017,2019-02-28,Y,서울특별시 광진구청,02-450-5100,2019-03-08
생활방범-286,1,5,중곡3동 684-9,서울특별시 광진구 동일로78길 20 (중곡동),서울특별시 광진구 중곡3동 684-9,37.569321,127.080625,3,N,N,N,경보음+CCTV,2017,2019-02-28,Y,서울특별시 광진구청,02-450-5100,2019-03-08
생활방범-287,1,5,중곡3동 693-9,서울특별시 광진구 동일로76길 51-22 (중곡동),서울특별시 광진구 중곡3동 693-9,37.568252,127.080555,3,N,N,N,경보음+CCTV,2017,2019-02-28,Y,서울특별시 광진구청,02-450-5100,2019-03-08
생활방범-288,1,5,중곡3동 694-1,서울특별시 광진구 동일로76길 49 (중곡동),서울특별시 광진구 중곡3동 694-1,37.568113,127.081232,3,N,N,N,경보음+CCTV,2017,2019-02-28,Y,서울특별시 광진구청,02-450-5100,2019-03-08
생활방범-289,1,5,중곡4동 87-3,서울특별시 광진구 영화사로5길 25 (중곡동),서울특별시 광진구 중곡4동 87-3,37.557345,127.092199,3,N,N,N,경보음+CCTV,2017,2019-02-28,Y,서울특별시 광진구청,02-450-5100,2019-03-08
생활방범-290,1,5,중곡4동 94-1,서울특별시 광진구 자양로45길 89 (중곡동 궁전빌),서울특별시 광진구 중곡4동 94-1,37.555244,127.089801,3,N,N,N,경보음+CCTV,2017,2019-02-28,Y,서울특별시 광진구청,02-450-5100,2019-03-08
생활방범-291,1,5,중곡4동 21-4,서울특별시 광진구 용마산로22길 10-10 (중곡동),서울특별시 광진구 중곡4동 21-4,37.563186,127.087678,3,N,N,N,경보음+CCTV,2017,2019-02-28,Y,서울특별시 광진구청,02-450-5100,2019-03-08
생활방범-292,1,5,중곡4동 101-20,서울특별시 광진구 영화사로3가길 9 (중곡동 부흥파크빌라),서울특별시 광진구 중곡4동 101-20,37.557997,127.09305,3,N,N,N,경보음+CCTV,2017,2019-02-28,Y,서울특별시 광진구청,02-450-5100,2019-03-08
생활방범-293,1,5,중곡4동 102-11,서울특별시 광진구 영화사로3가길 25 (중곡동),서울특별시 광진구 중곡4동 102-11,37.557572,127.093474,3,N,N,N,경보음+CCTV,2017,2019-02-28,Y,서울특별시 광진구청,02-450-5100,2019-03-08
생활방범-294,1,5,중곡4동 103-2,서울특별시 광진구 영화사로9가길 61 (중곡동),서울특별시 광진구 중곡4동 103-2,37.55772,127.095234,3,N,N,N,경보음+CCTV,2017,2019-02-28,Y,서울특별시 광진구청,02-450-5100,2019-03-08
생활방범-295,1,5,중곡4동 104-5,서울특별시 광진구 영화사로9길 10 (중곡동 트루빌),서울특별시 광진구 중곡4동 104-5,37.55562,127.0933,3,N,N,N,경보음+CCTV,2017,2019-02-28,Y,서울특별시 광진구청,02-450-5100,2019-03-08
생활방범-296,1,5,중곡4동 106-2,서울특별시 광진구 영화사로9길 70-12 (중곡동),서울특별시 광진구 중곡4동 106-2,37.556822,127.094654,3,N,N,N,경보음+CCTV,2017,2019-02-28,Y,서울특별시 광진구청,02-450-5100,2019-03-08
생활방범-297,1,5,중곡4동 107-28,서울특별시 광진구 영화사로7길 24 (중곡동),서울특별시 광진구 중곡4동 107-28,37.556868,127.092127,3,N,N,N,경보음+CCTV,2017,2019-02-28,Y,서울특별시 광진구청,02-450-5100,2019-03-08
생활방범-298,1,5,중곡4동 107-40,서울특별시 광진구 영화사로 51 (중곡동),서울특별시 광진구 중곡4동 107-40,37.555756,127.092347,3,N,N,N,경보음+CCTV,2017,2019-02-28,Y,서울특별시 광진구청,02-450-5100,2019-03-08
생활방범-299,1,5,중곡4동 147-152,서울특별시 광진구 용마산로8가길 26 (중곡동),서울특별시 광진구 중곡4동 147-152,37.561008,127.088801,3,N,N,N,경보음+CCTV,2017,2019-02-28,Y,서울특별시 광진구청,02-450-5100,2019-03-08
생활방범-300,1,5,중곡4동 150-300,서울특별시 광진구 용마산로8다길 23 (중곡동),서울특별시 광진구 중곡4동 150-300,37.561842,127.08947,3,N,N,N,경보음+CCTV,2017,2019-02-28,Y,서울특별시 광진구청,02-450-5100,2019-03-08
생활방범-301,1,5,중곡4동 287-15,서울특별시 광진구 용마산로36길 66 (중곡동 보광아트빌),서울특별시 광진구 중곡4동 287-15,37.569555,127.088729,3,N,N,N,경보음+CCTV,2017,2019-02-28,Y,서울특별시 광진구청,02-450-5100,2019-03-08
생활방범-302,1,5,중곡4동 58-22,서울특별시 광진구 용마산로8길 10 (중곡동 동암아트빌),서울특별시 광진구 중곡4동 58-22,37.559766,127.088375,3,N,N,N,경보음+CCTV,2017,2019-02-28,Y,서울특별시 광진구청,02-450-5100,2019-03-08
생활방범-303,1,5,중곡4동 599-4,서울특별시 광진구 용마산로36길 44 (중곡동),서울특별시 광진구 중곡4동 599-4,37.570531,127.088399,3,N,N,N,경보음+CCTV,2017,2019-02-28,Y,서울특별시 광진구청,02-450-5100,2019-03-08
생활방범-304,1,5,중곡4동 602-8,서울특별시 광진구 용마산로34길 15 (중곡동 드림빌),서울특별시 광진구 중곡4동 602-8,37.570271,127.087167,3,N,N,N,경보음+CCTV,2017,2019-02-28,Y,서울특별시 광진구청,02-450-5100,2019-03-08
생활방범-305,1,5,중곡4동 73-107,서울특별시 광진구 긴고랑로46가길 36 (중곡동),서울특별시 광진구 중곡4동 73-107,37.558726,127.095253,3,N,N,N,경보음+CCTV,2017,2019-02-28,Y,서울특별시 광진구청,02-450-5100,2019-03-08
생활방범-306,1,5,중곡4동 73-8,서울특별시 광진구 긴고랑로46길 11,서울특별시 광진구 중곡4동 73-8,37.560327,127.095611,3,N,N,N,경보음+CCTV,2017,2019-02-28,Y,서울특별시 광진구청,02-450-5100,2019-03-08
생활방범-307,1,5,중곡4동 90-18,서울특별시 광진구 용마산로2길 45 (중곡동 욱현아파트),서울특별시 광진구 중곡4동 90-18,37.556041,127.090761,3,N,N,N,경보음+CCTV,2017,2019-02-28,Y,서울특별시 광진구청,02-450-5100,2019-03-08
생활방범-308,1,5,중곡4동 94-20,서울특별시 광진구 자양로45길 65 (중곡동),서울특별시 광진구 중곡4동 94-20,37.554071,127.090318,3,N,N,N,경보음+CCTV,2017,2019-02-28,Y,서울특별시 광진구청,02-450-5100,2019-03-08
생활방범-309,1,5,중곡4동 94-31,서울특별시 광진구 자양로43길 86 (중곡동 다온),서울특별시 광진구 중곡4동 94-31,37.554527,127.089505,3,N,N,N,경보음+CCTV,2017,2019-02-28,Y,서울특별시 광진구청,02-450-5100,2019-03-08
생활방범-310,1,5,화양동 234,서울특별시 광진구 아차산로21길 47 (화양동),서울특별시 광진구 화양동 234,37.544292,127.065345,3,N,N,N,경보음+CCTV,2017,2019-02-28,Y,서울특별시 광진구청,02-450-5100,2019-03-08
생활방범-311,1,5,화양동 32-1,서울특별시 광진구 동일로28길 16 (화양동),서울특별시 광진구 화양동 32-1,37.546297,127.067931,3,N,N,N,경보음+CCTV,2017,2019-02-28,Y,서울특별시 광진구청,02-450-5100,2019-03-08
생활방범-312,1,5,화양동 36-4,서울특별시 광진구 아차산로23길 68 (화양동),서울특별시 광진구 화양동 36-4,37.545253,127.067481,3,N,N,N,경보음+CCTV,2017,2019-02-28,Y,서울특별시 광진구청,02-450-5100,2019-03-08
생활방범-313,1,5,화양동 45-3,서울특별시 광진구 아차산로25길 27 (화양동),서울특별시 광진구 화양동 45-3,37.542915,127.067162,3,N,N,N,경보음+CCTV,2017,2019-02-28,Y,서울특별시 광진구청,02-450-5100,2019-03-08
생활방범-314,1,5,화양동 46-3,서울특별시 광진구 동일로24길 56 (화양동),서울특별시 광진구 화양동 46-3,37.543209,127.068234,3,N,N,N,경보음+CCTV,2017,2019-02-28,Y,서울특별시 광진구청,02-450-5100,2019-03-08
생활방범-315,1,5,화양동 49-5,서울특별시 광진구 동일로22길 28 (화양동),서울특별시 광진구 화양동 49-5,37.542321,127.065909,3,N,N,N,경보음+CCTV,2017,2019-02-28,Y,서울특별시 광진구청,02-450-5100,2019-03-08
생활방범-317,1,5,화양동 6-7,서울특별시 광진구 아차산로 241 (화양동),서울특별시 광진구 화양동 6-7,37.540705,127.070543,3,N,N,N,경보음+CCTV,2017,2019-02-28,Y,서울특별시 광진구청,02-450-5100,2019-03-08
생활방범-318,1,5,화양동 10-28,서울특별시 광진구 동일로24길 77 (화양동),서울특별시 광진구 화양동 10-28,37.542984,127.069142,3,N,N,N,경보음+CCTV,2017,2019-02-28,Y,서울특별시 광진구청,02-450-5100,2019-03-08
생활방범-319,1,5,화양동 12-47,서울특별시 광진구 군자로3길 25-16 (화양동),서울특별시 광진구 화양동 12-47,37.543818,127.070614,3,N,N,N,경보음+CCTV,2017,2019-02-28,Y,서울특별시 광진구청,02-450-5100,2019-03-08
생활방범-320,1,5,화양동 16-61,서울특별시 광진구 군자로5길 18-12 (화양동),서울특별시 광진구 화양동 16-61,37.545669,127.069545,3,N,N,N,경보음+CCTV,2017,2019-02-28,Y,서울특별시 광진구청,02-450-5100,2019-03-08
생활방범-321,1,5,현대세탁소,서울특별시 광진구 긴고랑로46길 11,서울특별시 광진구 화양동 111-89,37.545645,127.074202,3,N,N,N,경보음+CCTV,2017,2019-02-28,Y,서울특별시 광진구청,02-450-5100,2019-03-08
생활방범-322,1,5,화양동 32-17,서울특별시 광진구 능동로13길 88 (화양동),서울특별시 광진구 화양동 32-17,37.545538,127.068667,3,N,N,N,경보음+CCTV,2017,2019-02-28,Y,서울특별시 광진구청,02-450-5100,2019-03-08
생활방범-323,1,5,화양동 32-27,서울특별시 광진구 동일로28길 38 (화양동),서울특별시 광진구 화양동 32-27,37.546369,127.068832,3,N,N,N,경보음+CCTV,2017,2019-02-28,Y,서울특별시 광진구청,02-450-5100,2019-03-08
생활방범-324,1,5,화양동 35-24,서울특별시 광진구 아차산로25길 48 (화양동),서울특별시 광진구 화양동 35-24,37.543515,127.067536,3,N,N,N,경보음+CCTV,2017,2019-02-28,Y,서울특별시 광진구청,02-450-5100,2019-03-08
생활방범-325,1,5,화양동 47-73,서울특별시 광진구 동일로22길 71 (화양동),서울특별시 광진구 화양동 47-73,37.541558,127.068314,3,N,N,N,경보음+CCTV,2017,2019-02-28,Y,서울특별시 광진구청,02-450-5100,2019-03-08
생활방범-326,1,5,화양동 495-16,서울특별시 광진구 광나루로24길 12 (화양동),서울특별시 광진구 화양동 495-16,37.545859,127.076093,3,N,N,N,경보음+CCTV,2017,2019-02-28,Y,서울특별시 광진구청,02-450-5100,2019-03-08
생활방범-327,1,5,화양동 499-44,서울특별시 광진구 광나루로22길 7,서울특별시 광진구 화양동 499-44,37.546382,127.075235,3,N,N,N,경보음+CCTV,2017,2019-02-28,Y,서울특별시 광진구청,02-450-5100,2019-03-08
생활방범-328,1,5,화양동 502-1,서울특별시 광진구 광나루로20가길 21 (화양동),서울특별시 광진구 화양동 502-1,37.545287,127.075283,3,N,N,N,경보음+CCTV,2017,2019-02-28,Y,서울특별시 광진구청,02-450-5100,2019-03-08
생활방범-329,1,5,화양동 509-1,서울특별시 광진구 광나루로26길 24 (화양동),서울특별시 광진구 화양동 509-1,37.545499,127.077295,3,N,N,N,경보음+CCTV,2017,2019-02-28,Y,서울특별시 광진구청,02-450-5100,2019-03-08
생활방범-330,1,5,화양동 8-36,서울특별시 광진구 아차산로31길 14 (화양동),서울특별시 광진구 화양동 8-36,37.541759,127.069533,3,N,N,N,경보음+CCTV,2017,2019-02-28,Y,서울특별시 광진구청,02-450-5100,2019-03-08
생활방범-332,1,5,중곡1동 239-75,서울특별시 광진구 긴고랑로 19 (중곡동),서울특별시 광진구 중곡1동 239-75,37.563939,127.078721,3,N,N,N,경보음+CCTV,2017,2019-02-28,Y,서울특별시 광진구청,02-450-5100,2019-03-08
생활방범-333,1,5,중곡2동 47-6,서울특별시 광진구 긴고랑로16길 50 (중곡동 미주빌),서울특별시 광진구 중곡2동 47-6,37.559945,127.081724,3,N,N,N,경보음+CCTV,2017,2019-02-28,Y,서울특별시 광진구청,02-450-5100,2019-03-08
생활방범-334,1,5,중곡3동 570-9,서울특별시 광진구 답십리로78길 9-16 (중곡동),서울특별시 광진구 중곡3동 570-9,37.571125,127.082273,3,N,N,N,경보음+CCTV,2017,2019-02-28,Y,서울특별시 광진구청,02-450-5100,2019-03-08
생활방범-335,1,5,중곡4동 90-50,서울특별시 광진구 용마산로4길 26 (중곡동 그랑아트빌),서울특별시 광진구 중곡4동 90-50,37.556644,127.089576,3,N,N,N,경보음+CCTV,2017,2019-02-28,Y,서울특별시 광진구청,02-450-5100,2019-03-08
생활방범-336,1,5,능동 315-17,서울특별시 광진구 천호대로110길 122 (능동),서울특별시 광진구 능동 315-17,37.552391,127.077742,3,N,N,N,경보음+CCTV,2017,2019-02-28,Y,서울특별시 광진구청,02-450-5100,2019-03-08
생활방범-337,1,5,구의1동 242-8,서울특별시 광진구 자양로22길 58(구의동),서울특별시 광진구 구의1동 242-8,37.539903,127.086413,3,N,N,N,경보음+CCTV,2017,2019-02-28,Y,서울특별시 광진구청,02-450-5100,2019-03-08
생활방범-338,1,5,구의2동 50-4,서울특별시 광진구 자양로47길 11 (구의동),서울특별시 광진구 구의2동 50-4,37.552315,127.091918,3,N,N,N,경보음+CCTV,2017,2019-02-28,Y,서울특별시 광진구청,02-450-5100,2019-03-08
생활방범-339,1,5,구의3동 210-51,서울특별시 광진구 광나루로52길 66 (구의동),서울특별시 광진구 구의3동 210-51,37.539985,127.092305,3,N,N,N,경보음+CCTV,2017,2019-02-28,Y,서울특별시 광진구청,02-450-5100,2019-03-08
생활방범-340,1,5,광장동 272-24,서울특별시 광진구 광장로7길 7 (광장동),서울특별시 광진구 광장동 272-24,37.548334,127.105672,3,N,N,N,경보음+CCTV,2017,2019-02-28,Y,서울특별시 광진구청,02-450-5100,2019-03-08
생활방범-341,1,5,자양1동 612-21,서울특별시 광진구 자양로15길 108 (자양동),서울특별시 광진구 자양1동 612-21,37.534484,127.077953,3,N,N,N,경보음+CCTV,2017,2019-02-28,Y,서울특별시 광진구청,02-450-5100,2019-03-08
생활방범-342,1,5,자양2동 674,서울특별시 광진구 자양로3길 7 (자양동),서울특별시 광진구 자양2동 674,37.530531,127.085066,3,N,N,N,경보음+CCTV,2017,2019-02-28,Y,서울특별시 광진구청,02-450-5100,2019-03-08
생활방범-343,1,5,자양3동 466-4,서울특별시 광진구 뚝섬로40길 31 (자양동),서울특별시 광진구 자양3동 466-4,37.532657,127.072552,3,N,N,N,경보음+CCTV,2017,2019-02-28,Y,서울특별시 광진구청,02-450-5100,2019-03-08
생활방범-344,1,5,자양4동 57-156,서울특별시 광진구 뚝섬로22길 89 (자양동 대농연립),서울특별시 광진구 자양4동 57-156,37.534293,127.062678,3,N,N,N,경보음+CCTV,2017,2019-02-28,Y,서울특별시 광진구청,02-450-5100,2019-03-08
생활방범-345,1,5,화양동 132-66,서울특별시 광진구 군자로 38 (화양동),서울특별시 광진구 화양동 132-66,37.546584,127.070301,3,N,N,N,경보음+CCTV,2017,2019-02-28,Y,서울특별시 광진구청,02-450-5100,2019-03-08
생활방범-346,1,5,군자동 476-15,서울특별시 광진구 능동로31길 12-15 (군자동),서울특별시 광진구 군자동 476-15,37.55647,127.078206,3,N,N,N,경보음+CCTV,2017,2019-02-28,Y,서울특별시 광진구청,02-450-5100,2019-03-08
생활방범-347,1,5,구의1동 232-80,서울특별시 광진구 자양로30길 29 (구의동),서울특별시 광진구 구의1동 232-80,37.543672,127.086451,3,N,N,N,경보음+CCTV,2017,2019-02-28,Y,서울특별시 광진구청,02-450-5100,2019-03-08
생활방범-348,1,5,중곡2동 120-7,서울특별시 광진구 천호대로121길 6 (중곡동 유진쎄인트빌),서울특별시 광진구 중곡2동 120-7,37.555591,127.086562,3,N,N,N,경보음+CCTV,2017,2019-02-28,Y,서울특별시 광진구청,02-450-5100,2019-03-08
생활방범-349,1,5,자양3동 227-237,서울특별시 광진구 자양번영로13길 32 (자양동),서울특별시 광진구 자양3동 227-237,37.537975,127.075135,3,N,N,N,경보음+CCTV,2017,2019-02-28,Y,서울특별시 광진구청,02-450-5100,2019-03-08
생활방범-350,1,5,자양4동 5-75,서울특별시 광진구 동일로20길 106 (자양동),서울특별시 광진구 자양4동 5-75,37.539411,127.069382,3,N,N,N,경보음+CCTV,2017,2019-02-28,Y,서울특별시 광진구청,02-450-5100,2019-03-08
생활방범-351,1,5,중곡1동 616-1,서울특별시 광진구 동일로66길 28 (중곡동),서울특별시 광진구 중곡1동 616-1,37.561599,127.076528,3,N,N,N,경보음+CCTV,2017,2019-02-28,Y,서울특별시 광진구청,02-450-5100,2019-03-08
생활방범-352,1,5,중곡2동 35-8,서울특별시 광진구 능동로48길 59 (중곡동),서울특별시 광진구 중곡2동 35-8,37.562072,127.085842,3,N,N,N,경보음+CCTV,2017,2019-02-28,Y,서울특별시 광진구청,02-450-5100,2019-03-08
생활방범-353,1,5,중곡3동 169-53,서울특별시 광진구 능동로55길 20 (중곡동),서울특별시 광진구 중곡3동 169-53,37.568086,127.084448,3,N,N,N,경보음+CCTV,2017,2019-02-28,Y,서울특별시 광진구청,02-450-5100,2019-03-08
생활방범-354,1,5,중곡4동 297-7,서울특별시 광진구 용마산로30길 6 (중곡),서울특별시 광진구 중곡4동 297-7,37.568386,127.086294,3,N,N,N,경보음+CCTV,2017,2019-02-28,Y,서울특별시 광진구청,02-450-5100,2019-03-08
생활방범-355,1,5,화양동 24-12,서울특별시 광진구 아차산로21길 97(화양동),서울특별시 광진구 화양동 24-12,37.546231,127.067078,3,N,N,N,경보음+CCTV,2017,2019-02-28,Y,서울특별시 광진구청,02-450-5100,2019-03-08
생활방범-356,1,5,군자동 369-5,서울특별시 광진구 광나루로17길 14-14 (군자동),서울특별시 광진구 군자동 369-5,37.548934,127.072739,3,N,N,N,경보음+CCTV,2017,2019-02-28,Y,서울특별시 광진구청,02-450-5100,2019-03-08
생활방범-357,1,5,능동 252-17,서울특별시 광진구 천호대로124길 62 (능동),서울특별시 광진구 능동 252-17,37.551655,127.086107,3,N,N,N,경보음+CCTV,2017,2019-02-28,Y,서울특별시 광진구청,02-450-5100,2019-03-08
생활방범-358,1,5,자양1동 611-6,서울특별시 광진구 자양번영로8길 7 (자양동),서울특별시 광진구 자양1동 611-6,37.534517,127.076626,3,N,N,N,경보음+CCTV,2017,2019-02-28,Y,서울특별시 광진구청,02-450-5100,2019-03-08
생활방범-359,1,5,자양2동 607-26,서울특별시 광진구 뚝섬로50길 6 (자양동),서울특별시 광진구 자양2동 607-26,37.532319,127.078263,3,N,N,N,경보음+CCTV,2017,2019-02-28,Y,서울특별시 광진구청,02-450-5100,2019-03-08
생활방범-360,1,5,자양3동 227-133,서울특별시 광진구 자양번영로 81 (자양동),서울특별시 광진구 자양3동 227-133,37.537052,127.076679,3,N,N,N,경보음+CCTV,2017,2019-02-28,Y,서울특별시 광진구청,02-450-5100,2019-03-08
생활방범-361,1,5,자양4동 236-79,서울특별시 광진구 뚝섬로21길 9 (자양동),서울특별시 광진구 자양4동 236-79,37.537523,127.062255,3,N,N,N,경보음+CCTV,2017,2019-02-28,Y,서울특별시 광진구청,02-450-5100,2019-03-08
생활방범-362,1,5,구의1동 241-20,서울특별시 광진구 자양로22길 61 (구의동),서울특별시 광진구 구의1동 241-20,37.543318,127.087835,3,N,N,N,경보음+CCTV,2017,2019-02-28,Y,서울특별시 광진구청,02-450-5100,2019-03-08
생활방범-363,1,5,구의2동 61-30,서울특별시 광진구 자양로38길 47 (구의동),서울특별시 광진구 구의2동 61-30,37.54682,127.090556,3,N,N,N,경보음+CCTV,2017,2019-02-28,Y,서울특별시 광진구청,02-450-5100,2019-03-08
생활방범-364,1,5,구의3동 218-9,서울특별시 광진구 아차산로62길 14-2 (구의동),서울특별시 광진구 구의3동 218-9,37.539113,127.093659,3,N,N,N,경보음+CCTV,2017,2019-02-28,Y,서울특별시 광진구청,02-450-5100,2019-03-08
생활방범-365,1,5,광장동 288-17,서울특별시 광진구 광장로 64 (광장동),서울특별시 광진구 광장동 288-17,37.547501,127.104275,3,N,N,N,경보음+CCTV,2017,2019-02-28,Y,서울특별시 광진구청,02-450-5100,2019-03-08
생활방범-386,1,5,구의1동 239-114,서울특별시 광진구 광나루로38길 67(구의동),서울특별시 광진구 구의1동 239-114,37.542155,127.08734,3,N,N,N,경보음+CCTV,2017,2019-02-28,Y,서울특별시 광진구청,02-450-5100,2019-03-08
생활방범-387,1,5,광장동 262,서울특별시 광진구 광장로3길 18-21 (광장동),서울특별시 광진구 광장동 262,37.547593,127.103094,3,N,N,N,경보음+CCTV,2017,2019-02-28,Y,서울특별시 광진구청,02-450-5100,2019-03-08
생활방범-388,1,5,광장동 272-15,서울특별시 광진구 광장로5길 12 (광장동),서울특별시 광진구 광장동 272-15,37.548305,127.10507,3,N,N,N,경보음+CCTV,2017,2019-02-28,Y,서울특별시 광진구청,02-450-5100,2019-03-08
생활방범-389,1,5,광장동 276-18,서울특별시 광진구 광장로7길 24 (광장동),서울특별시 광진구 광장동 276-18,37.548848,127.105376,3,N,N,N,경보음+CCTV,2017,2019-02-28,Y,서울특별시 광진구청,02-450-5100,2019-03-08
생활방범-390,1,5,광장동 394-23,서울특별시 광진구 광장로1길 19 (광장동),서울특별시 광진구 광장동 394-23,37.547911,127.101973,3,N,N,N,경보음+CCTV,2017,2019-02-28,Y,서울특별시 광진구청,02-450-5100,2019-03-08
생활방범-391,1,5,광장동 413-18번지,서울특별시 광진구 아차산로69길 6 (광장동),서울특별시 광진구 광장동 413-18번지,37.543072,127.09845,3,N,N,N,경보음+CCTV,2017,2019-02-28,Y,서울특별시 광진구청,02-450-5100,2019-03-08
생활방범-392,1,5,광장동 413-9,서울특별시 광진구 아차산로69길 36 (광장동),서울특별시 광진구 광장동 413-9,37.543961,127.098701,3,N,N,N,경보음+CCTV,2017,2019-02-28,Y,서울특별시 광진구청,02-450-5100,2019-03-08
생활방범-393,1,5,광장동 472-1,서울특별시 광진구 아차산로66길 8 (광장동),서울특별시 광진구 광장동 472-1,37.541414,127.097362,3,N,N,N,경보음+CCTV,2017,2019-02-28,Y,서울특별시 광진구청,02-450-5100,2019-03-08
생활방범-394,1,5,구의1동 240-26,서울특별시 광진구 광나루로40길 80-4 (구의동),서울특별시 광진구 구의1동 240-26,37.541377,127.088755,3,N,N,N,경보음+CCTV,2017,2019-02-28,Y,서울특별시 광진구청,02-450-5100,2019-03-08
생활방범-395,1,5,구의1동 248-77,서울특별시 광진구 아차산로55길 81 (구의동),서울특별시 광진구 구의1동 248-77,37.541193,127.086983,3,N,N,N,경보음+CCTV,2017,2019-02-28,Y,서울특별시 광진구청,02-450-5100,2019-03-08
생활방범-396,1,5,구의1동 635-5,서울특별시 광진구 자양로23길 65 (구의동),서울특별시 광진구 구의1동 635-5,37.543344,127.083664,3,N,N,N,경보음+CCTV,2017,2019-02-28,Y,서울특별시 광진구청,02-450-5100,2019-03-08
생활방범-397,1,5,구의1동 637-5,서울특별시 광진구 광나루로30나길 17 (구의동),서울특별시 광진구 구의1동 637-5,37.543665,127.08268,3,N,N,N,경보음+CCTV,2017,2019-02-28,Y,서울특별시 광진구청,02-450-5100,2019-03-08
생활방범-398,1,5,구의3동 199-14,서울특별시 광진구 광나루로54길 20 (구의동),서울특별시 광진구 구의3동 199-14,37.5402,127.09531,3,N,N,N,경보음+CCTV,2017,2019-02-28,Y,서울특별시 광진구청,02-450-5100,2019-03-08
생활방범-399,1,5,구의3동 208-1,서울특별시 광진구 아차산로65길 57 (구의동 욱현아파트),서울특별시 광진구 구의3동 208-1,37.542479,127.092359,3,N,N,N,경보음+CCTV,2017,2019-02-28,Y,서울특별시 광진구청,02-450-5100,2019-03-08
생활방범-400,1,5,구의3동 587-89,서울특별시 광진구 구의강변로3가길 3 (구의동),서울특별시 광진구 구의3동 587-89,37.5359,127.091601,3,N,N,N,경보음+CCTV,2017,2019-02-28,Y,서울특별시 광진구청,02-450-5100,2019-03-08
생활방범-401,1,5,구의3동 590-2,서울특별시 광진구 구의강변로3길 39 (구의동),서울특별시 광진구 구의3동 590-2,37.536674,127.090308,3,N,N,N,경보음+CCTV,2017,2019-02-28,Y,서울특별시 광진구청,02-450-5100,2019-03-08
생활방범-402,1,5,군자동 117-47,서울특별시 광진구 동일로52길 24 (군자동),서울특별시 광진구 군자동 117-47,37.554539,127.072434,3,N,N,N,경보음+CCTV,2017,2019-02-28,Y,서울특별시 광진구청,02-450-5100,2019-03-08
생활방범-403,1,5,군자동 125-194,서울특별시 광진구 동일로46길 26 (군자동),서울특별시 광진구 군자동 125-194,37.553637,127.07186,3,N,N,N,경보음+CCTV,2017,2019-02-28,Y,서울특별시 광진구청,02-450-5100,2019-03-08
생활방범-404,1,5,군자동 161-1,서울특별시 광진구 면목로5길 59 (군자동),서울특별시 광진구 군자동 161-1,37.556092,127.073218,3,N,N,N,경보음+CCTV,2017,2019-02-28,Y,서울특별시 광진구청,02-450-5100,2019-03-08
생활방범-405,1,5,군자동 164-1,서울특별시 광진구 면목로5길 49 (군자동),서울특별시 광진구 군자동 164-1,37.556532,127.073467,3,N,N,N,경보음+CCTV,2017,2019-02-28,Y,서울특별시 광진구청,02-450-5100,2019-03-08
생활방범-406,1,5,군자동 346-13,서울특별시 광진구 동일로34길 19 (군자동),서울특별시 광진구 군자동 346-13,37.549967,127.069703,3,N,N,N,경보음+CCTV,2017,2019-02-28,Y,서울특별시 광진구청,02-450-5100,2019-03-08
생활방범-407,1,5,군자동 353-4,서울특별시 광진구 광나루로13길 30 (군자동),서울특별시 광진구 군자동 353-4,37.5496,127.068833,3,N,N,N,경보음+CCTV,2017,2019-02-28,Y,서울특별시 광진구청,02-450-5100,2019-03-08
생활방범-408,1,5,능동 239-36,서울특별시 광진구 능동로32길 67 (능동),서울특별시 광진구 능동 239-36,37.55422,127.082124,3,N,N,N,경보음+CCTV,2017,2019-02-28,Y,서울특별시 광진구청,02-450-5100,2019-03-08
생활방범-409,1,5,자양1동 801,서울특별시 광진구 아차산로40길 28 (자양동),서울특별시 광진구 자양1동 801,37.536497,127.078142,3,N,N,N,경보음+CCTV,2017,2019-02-28,Y,서울특별시 광진구청,02-450-5100,2019-03-08
생활방범-410,1,5,자양1동 222-6,서울특별시 광진구 아차산로44길 26 (자양동),서울특별시 광진구 자양1동 222-6,37.536625,127.079734,3,N,N,N,경보음+CCTV,2017,2019-02-28,Y,서울특별시 광진구청,02-450-5100,2019-03-08
생활방범-411,1,5,자양1동 226-1,서울특별시 광진구 아차산로39길 11 (자양동 성진빌리지),서울특별시 광진구 자양1동 226-1,37.538654,127.077189,3,N,N,N,경보음+CCTV,2017,2019-02-28,Y,서울특별시 광진구청,02-450-5100,2019-03-08
생활방범-412,1,5,자양1동 610-28,서울특별시 광진구 뚝섬로43길 7 (자양동),서울특별시 광진구 자양1동 610-28,37.533551,127.076737,3,N,N,N,경보음+CCTV,2017,2019-02-28,Y,서울특별시 광진구청,02-450-5100,2019-03-08
생활방범-413,1,5,자양1동 658-1,서울특별시 광진구 뚝섬로59길 18 (자양동),서울특별시 광진구 자양1동 658-1,37.533081,127.083944,3,N,N,N,경보음+CCTV,2017,2019-02-28,Y,서울특별시 광진구청,02-450-5100,2019-03-08
생활방범-414,1,5,자양1동 772-12,서울특별시 광진구 아차산로41길 16 (자양동),서울특별시 광진구 자양1동 772-12,37.538661,127.078916,3,N,N,N,경보음+CCTV,2017,2019-02-28,Y,서울특별시 광진구청,02-450-5100,2019-03-08
생활방범-415,1,5,자양2동 665,서울특별시 광진구 뚝섬로56길 35 (자양동 그린아파트),서울특별시 광진구 자양2동 665,37.530077,127.08273,3,N,N,N,경보음+CCTV,2017,2019-02-28,Y,서울특별시 광진구청,02-450-5100,2019-03-08
생활방범-416,1,5,자양2동 602-5,서울특별시 광진구 자양번영로4길 17 (자양동),서울특별시 광진구 자양2동 602-5,37.53153,127.076556,3,N,N,N,경보음+CCTV,2017,2019-02-28,Y,서울특별시 광진구청,02-450-5100,2019-03-08
생활방범-417,1,5,자양2동 666-4,서울특별시 광진구 뚝섬로56길 59 (자양동),서울특별시 광진구 자양2동 666-4,37.528859,127.082887,3,N,N,N,경보음+CCTV,2017,2019-02-28,Y,서울특별시 광진구청,02-450-5100,2019-03-08
생활방범-418,1,5,자양2동 684-10,서울특별시 광진구 뚝섬로64길 14 (자양동 연리지),서울특별시 광진구 자양2동 684-10,37.533175,127.08887,3,N,N,N,경보음+CCTV,2017,2019-02-28,Y,서울특별시 광진구청,02-450-5100,2019-03-08
생활방범-419,1,5,자양2동 690-56,서울특별시 광진구 뚝섬로64길 70 (자양동),서울특별시 광진구 자양2동 690-56,37.530623,127.089141,3,N,N,N,경보음+CCTV,2017,2019-02-28,Y,서울특별시 광진구청,02-450-5100,2019-03-08
생활방범-420,1,5,자양3동 504-1,서울특별시 광진구 뚝섬로34길 13 (자양동),서울특별시 광진구 자양3동 504-1,37.534219,127.069764,3,N,N,N,경보음+CCTV,2017,2019-02-28,Y,서울특별시 광진구청,02-450-5100,2019-03-08
생활방범-421,1,5,자양3동 553-339,서울특별시 광진구 능동로4길 13 (자양동),서울특별시 광진구 자양3동 553-339,37.533464,127.068559,3,N,N,N,경보음+CCTV,2017,2019-02-28,Y,서울특별시 광진구청,02-450-5100,2019-03-08
생활방범-422,1,5,자양고등학교,서울특별시 광진구 뚝섬로37길 28 (자양동),서울특별시 광진구 자양3동 578-1,37.535531,127.075579,3,N,N,N,경보음+CCTV,2017,2019-02-28,Y,서울특별시 광진구청,02-450-5100,2019-03-08
생활방범-423,1,5,신양교회,서울특별시 광진구 뚝섬로22길 8 (자양동),서울특별시 광진구 자양4동 236-156,37.536615,127.061634,3,N,N,N,경보음+CCTV,2017,2019-02-28,Y,서울특별시 광진구청,02-450-5100,2019-03-08
생활방범-424,1,5,노룬산시장 사거리,서울특별시 광진구 뚝섬로25길 23 (자양동),서울특별시 광진구 자양4동 44-1,37.537147,127.064696,3,N,N,N,경보음+CCTV,2017,2019-02-28,Y,서울특별시 광진구청,02-450-5100,2019-03-08
생활방범-425,1,5,자양4동 553-457,서울특별시 광진구 능동로5길 7 (자양동),서울특별시 광진구 자양4동 553-457,37.53716,127.068071,3,N,N,N,경보음+CCTV,2017,2019-02-28,Y,서울특별시 광진구청,02-450-5100,2019-03-08
생활방범-426,1,5,자양4동 846-10,서울특별시 광진구 뚝섬로27길 43 (자양동),서울특별시 광진구 자양4동 846-10,37.537895,127.066205,3,N,N,N,경보음+CCTV,2017,2019-02-28,Y,서울특별시 광진구청,02-450-5100,2019-03-08
생활방범-427,1,5,중곡2동 138-35,서울특별시 광진구 용마산로3길 98 (중곡동),서울특별시 광진구 중곡2동 138-35,37.557403,127.083103,3,N,N,N,경보음+CCTV,2017,2019-02-28,Y,서울특별시 광진구청,02-450-5100,2019-03-08
생활방범-428,1,5,중곡3동 191-60,서울특별시 광진구 긴고랑로7길 69 (중곡동),서울특별시 광진구 중곡3동 191-60,37.566468,127.080689,3,N,N,N,경보음+CCTV,2017,2019-02-28,Y,서울특별시 광진구청,02-450-5100,2019-03-08
생활방범-429,1,5,중곡3동 193-23,서울특별시 광진구 능동로51길 37-1 (중곡동),서울특별시 광진구 중곡3동 193-23,37.566552,127.082043,3,N,N,N,경보음+CCTV,2017,2019-02-28,Y,서울특별시 광진구청,02-450-5100,2019-03-08
생활방범-430,1,5,중곡3동 220-80,서울특별시 광진구 긴고랑로9길 46 (중곡동),서울특별시 광진구 중곡3동 220-80,37.565643,127.081909,3,N,N,N,경보음+CCTV,2017,2019-02-28,Y,서울특별시 광진구청,02-450-5100,2019-03-08
생활방범-431,1,5,중곡4동 18-16,서울특별시 광진구 용마산로28길 24 (중곡동 대원빌라),서울특별시 광진구 중곡4동 18-16,37.567997,127.087025,3,N,N,N,경보음+CCTV,2017,2019-02-28,Y,서울특별시 광진구청,02-450-5100,2019-03-08
생활방범-432,1,5,화양동 2-1,서울특별시 광진구 능동로15길 11 (화양동),서울특별시 광진구 화양동 2-1,37.545265,127.072133,3,N,N,N,경보음+CCTV,2017,2019-02-28,Y,서울특별시 광진구청,02-450-5100,2019-03-08
생활방범-433,1,5,화양동 10-1,서울특별시 광진구 능동로13길 39 (화양동),서울특별시 광진구 화양동 10-1,37.544196,127.069759,3,N,N,N,경보음+CCTV,2017,2019-02-28,Y,서울특별시 광진구청,02-450-5100,2019-03-08
생활방범-434,1,5,화양동 2-30,서울특별시 광진구 군자로2길 4 (화양동),서울특별시 광진구 화양동 2-30,37.54441,127.071639,3,N,N,N,경보음+CCTV,2017,2019-02-28,Y,서울특별시 광진구청,02-450-5100,2019-03-08
생활방범-366,1,5,자양동 52-125,서울특별시 광진구 동일로4길 60,서울특별시 광진구 자양동 52-125,37.535795,127.064097,3,N,N,N,경보음+CCTV,2017,2019-02-28,Y,서울특별시 광진구청,02-450-5100,2019-03-08
생활방범-367,1,5,중곡동 150-208,서울특별시 광진구 긴고랑로26길 7-1,서울특별시 광진구 중곡동 150-208,37.56027,127.085406,3,N,N,N,경보음+CCTV,2017,2019-02-28,Y,서울특별시 광진구청,02-450-5100,2019-03-08
생활방범-368,1,5,중곡동 170-19,서울특별시 광진구 능동로55길 43,서울특별시 광진구 중곡동 170-19,37.568096,127.083144,3,N,N,N,경보음+CCTV,2017,2019-02-28,Y,서울특별시 광진구청,02-450-5100,2019-03-08
생활방범-369,1,5,중곡동 74-46,서울특별시 광진구 긴고랑로44길 42,서울특별시 광진구 중곡동 74-46,37.558441,127.094449,3,N,N,N,경보음+CCTV,2017,2019-02-28,Y,서울특별시 광진구청,02-450-5100,2019-03-08
생활방범-370,1,5,능동 135-9,서울특별시 광진구 능동로32길 82-53,서울특별시 광진구 능동 135-9,37.552789,127.081806,3,N,N,N,경보음+CCTV,2017,2019-02-28,Y,서울특별시 광진구청,02-450-5100,2019-03-08
생활방범-371,1,5,구의동 241-96,서울특별시 광진구 아차산로57길 41,서울특별시 광진구 구의동 241-96,37.540595,127.088603,3,N,N,N,경보음+CCTV,2017,2019-02-28,Y,서울특별시 광진구청,02-450-5100,2019-03-08
생활방범-372,1,5,구의동 246-8,서울특별시 광진구 자양로18길 26,서울특별시 광진구 구의동 246-8,37.537882,127.085159,3,N,N,N,경보음+CCTV,2017,2019-02-28,Y,서울특별시 광진구청,02-450-5100,2019-03-08
생활방범-373,1,5,구의동 55-24,서울특별시 광진구 자양로43길 18(천호대로 671),서울특별시 광진구 구의동 55-24,37.551716,127.090768,3,N,N,N,경보음+CCTV,2017,2019-02-28,Y,서울특별시 광진구청,02-450-5100,2019-03-08
생활방범-374,1,5,구의동 592-39,서울특별시 광진구 아차산로58길 77,서울특별시 광진구 구의동 592-39,37.535213,127.089795,3,N,N,N,경보음+CCTV,2017,2019-02-28,Y,서울특별시 광진구청,02-450-5100,2019-03-08
생활방범-375,1,5,광장동 554-11,서울특별시 광진구 아차산로70길 17-16,서울특별시 광진구 광장동 554-11,37.541599,127.102428,3,N,N,N,경보음+CCTV,2017,2019-02-28,Y,서울특별시 광진구청,02-450-5100,2019-03-08
생활방범-376,1,5,자양동 621-38,서울특별시 광진구 뚝섬로49길 59,서울특별시 광진구 자양동 621-38,37.534626,127.080432,3,N,N,N,경보음+CCTV,2017,2019-02-28,Y,서울특별시 광진구청,02-450-5100,2019-03-08
생활방범-377,1,5,자양동 595-28,서울특별시 광진구 자양번영로2길 55,서울특별시 광진구 자양동 595-28,37.530144,127.077966,3,N,N,N,경보음+CCTV,2017,2019-02-28,Y,서울특별시 광진구청,02-450-5100,2019-03-08
생활방범-378,1,5,자양동 498-2 옆,서울특별시 광진구 뚝섬로36길 38,서울특별시 광진구 자양동 498-2 옆,37.53302,127.070511,3,N,N,N,경보음+CCTV,2017,2019-02-28,Y,서울특별시 광진구청,02-450-5100,2019-03-08
생활방범-379,1,5,자양동 51-42,서울특별시 광진구 동일로4길 74,서울특별시 광진구 자양동 51-42,37.53575,127.06499,3,N,N,N,경보음+CCTV,2017,2019-02-28,Y,서울특별시 광진구청,02-450-5100,2019-03-08
생활방범-380,1,5,자양동 57-76,서울특별시 광진구 뚝섬로24길 48,서울특별시 광진구 자양동 57-76,37.534686,127.062869,3,N,N,N,경보음+CCTV,2017,2019-02-28,Y,서울특별시 광진구청,02-450-5100,2019-03-08
생활방범-381,1,5,능동로 청담대교 하부(농구장),,서울특별시 광진구 능동로 청담대교 하부(농구장),37.5348,127.068223,3,N,N,N,경보음+CCTV,2017,2019-02-28,Y,서울특별시 광진구청,02-450-5100,2019-03-08
생활방범-382,1,5,능동로 청담대교 하부(X게임장),,서울특별시 광진구 능동로 청담대교 하부(X게임장),37.533862,127.067787,3,N,N,N,경보음+CCTV,2017,2019-02-28,Y,서울특별시 광진구청,02-450-5100,2019-03-08
생활방범-383,1,5,화양동 35-35,서울특별시 광진구 아차산로27길 45-6,서울특별시 광진구 화양동 35-35,37.543725,127.068261,3,N,N,N,경보음+CCTV,2017,2019-02-28,Y,서울특별시 광진구청,02-450-5100,2019-03-08
생활방범-384,1,5,화양동 431-5,서울특별시 광진구 광나루로24길 53,서울특별시 광진구 화양동 431-5,37.545144,127.078111,3,N,N,N,경보음+CCTV,2017,2019-02-28,Y,서울특별시 광진구청,02-450-5100,2019-03-08
생활방범-385,1,5,군자동 342-10,서울특별시 광진구 군자로13길 35,서울특별시 광진구 군자동 342-10,37.551986,127.070499,3,N,N,N,경보음+CCTV,2017,2019-02-28,Y,서울특별시 광진구청,02-450-5100,2019-03-08
생활방범-435,1,5,중곡1동 231-34,서울특별시 광진구 면목로 127,서울특별시 광진구 중곡1동 231-34,37.565231,127.08075,3,N,N,N,경보음+CCTV,2018,2019-02-28,Y,서울특별시 광진구청,02-450-5100,2019-03-08
생활방범-436,1,5,중곡1동 234-26,서울특별시 광진구 긴고랑로3길 19-2,서울특별시 광진구 중곡1동 234-26,37.565469,127.0783,3,N,N,N,경보음+CCTV,2018,2019-02-28,Y,서울특별시 광진구청,02-450-5100,2019-03-08
생활방범-437,1,5,중곡2동 150-238,서울특별시 광진구 용마산로7길 59,서울특별시 광진구 중곡2동 150-238,37.560058,127.084643,3,N,N,N,경보음+CCTV,2018,2019-02-28,Y,서울특별시 광진구청,02-450-5100,2019-03-08
생활방범-438,1,5,중곡2동 33-20,서울특별시 광진구 긴고랑로17길11,서울특별시 광진구 중곡2동 33-20,37.563077,127.084098,3,N,N,N,경보음+CCTV,2018,2019-02-28,Y,서울특별시 광진구청,02-450-5100,2019-03-08
생활방범-439,1,5,중곡3동 583-12,서울특별시 광진구 답십리로74길 15,서울특별시 광진구 중곡3동 583-12,37.571096,127.080514,3,N,N,N,경보음+CCTV,2018,2019-02-28,Y,서울특별시 광진구청,02-450-5100,2019-03-08
생활방범-440,1,5,중곡4동 76-56,서울특별시 광진구 긴고랑로38길 14,서울특별시 광진구 중곡4동 76-56,37.558511,127.09037,3,N,N,N,경보음+CCTV,2018,2019-02-28,Y,서울특별시 광진구청,02-450-5100,2019-03-08
생활방범-441,1,5,중곡4동 92-4,서울특별시 광진구 자양로43길 123,서울특별시 광진구 중곡4동 92-4,37.556016,127.089018,3,N,N,N,경보음+CCTV,2018,2019-02-28,Y,서울특별시 광진구청,02-450-5100,2019-03-08
생활방범-442,1,5,중곡4동 294-6,서울특별시 광진구 용마산로30길 49,서울특별시 광진구 중곡4동 294-6,37.568717,127.088982,3,N,N,N,경보음+CCTV,2018,2019-02-28,Y,서울특별시 광진구청,02-450-5100,2019-03-08
생활방범-443,1,5,화양동 5-68,서울특별시 광진구 아차산로33길 16-8,서울특별시 광진구 화양동 5-68,37.541609,127.070569,3,N,N,N,경보음+CCTV,2018,2019-02-28,Y,서울특별시 광진구청,02-450-5100,2019-03-08
생활방범-444,1,5,화양동 35-60,서울특별시 광진구 아차산로25길 76,서울특별시 광진구 화양동 35-60,37.544629,127.068154,3,N,N,N,경보음+CCTV,2018,2019-02-28,Y,서울특별시 광진구청,02-450-5100,2019-03-08
생활방범-445,1,5,군자동 42-1,서울특별시 광진구 면목로5길 15,서울특별시 광진구 군자동 42-1,37.55665,127.075074,3,N,N,N,경보음+CCTV,2018,2019-02-28,Y,서울특별시 광진구청,02-450-5100,2019-03-08
생활방범-446,1,5,능동 260-1,서울특별시 광진구 능동로32길 29,서울특별시 광진구 능동 260-1,37.55497,127.080079,3,N,N,N,경보음+CCTV,2018,2019-02-28,Y,서울특별시 광진구청,02-450-5100,2019-03-08
생활방범-447,1,5,능동 240-26,서울특별시 광진구 능동로32길 82-26,서울특별시 광진구 능동 240-26,37.553565,127.08261,3,N,N,N,경보음+CCTV,2018,2019-02-28,Y,서울특별시 광진구청,02-450-5100,2019-03-08
생활방범-448,1,5,자양1동 774-2,서울특별시 광진구 아차산로45길 31,서울특별시 광진구 자양1동 774-2,37.538329,127.079992,3,N,N,N,경보음+CCTV,2018,2019-02-28,Y,서울특별시 광진구청,02-450-5100,2019-03-08
생활방범-449,1,5,자양2동 649-28,서울특별시 광진구 뚝섬로52다길 45,서울특별시 광진구 자양2동 649-28,37.529843,127.081489,3,N,N,N,경보음+CCTV,2018,2019-02-28,Y,서울특별시 광진구청,02-450-5100,2019-03-08
생활방범-450,1,5,자양2동 683-9 맞은편,서울특별시 광진구 뚝섬로 716,서울특별시 광진구 자양2동 683-9 맞은편,37.533735,127.088642,3,N,N,N,경보음+CCTV,2018,2019-02-28,Y,서울특별시 광진구청,02-450-5100,2019-03-08
생활방범-451,1,5,자양3동 227-257,서울특별시 광진구 자양번영로9길 16-4,서울특별시 광진구 자양3동 227-257,37.536538,127.075604,3,N,N,N,경보음+CCTV,2018,2019-02-28,Y,서울특별시 광진구청,02-450-5100,2019-03-08
생활방범-452,1,5,자양3동 477-27,서울특별시 광진구 뚝섬로40길 65,서울특별시 광진구 자양3동 477-27,37.53145,127.071537,3,N,N,N,경보음+CCTV,2018,2019-02-28,Y,서울특별시 광진구청,02-450-5100,2019-03-08
생활방범-453,1,5,자양4동 553-176,서울특별시 광진구 뚝섬로27길 19,서울특별시 광진구 자양4동 553-176,37.537019,127.065839,3,N,N,N,경보음+CCTV,2018,2019-02-28,Y,서울특별시 광진구청,02-450-5100,2019-03-08
생활방범-454,1,5,구의1동 231-9,서울특별시 광진구 광나루로40길 34,서울특별시 광진구 구의1동 231-9,37.543414,127.089275,3,N,N,N,경보음+CCTV,2018,2019-02-28,Y,서울특별시 광진구청,02-450-5100,2019-03-08
생활방범-455,1,5,구의2동 64-1,서울특별시 광진구 천호대로134길 31,서울특별시 광진구 구의2동 64-1,37.548299,127.08972,3,N,N,N,경보음+CCTV,2018,2019-02-28,Y,서울특별시 광진구청,02-450-5100,2019-03-08
생활방범-456,1,5,구의2동 614-15,서울특별시 광진구 자양로37길 22-10,서울특별시 광진구 구의2동 614-15,37.548768,127.087412,3,N,N,N,경보음+CCTV,2018,2019-02-28,Y,서울특별시 광진구청,02-450-5100,2019-03-08
생활방범-457,1,5,구의3동 210-5,서울특별시 광진구 아차산로 63길 17,서울특별시 광진구 구의3동 210-5,37.540506,127.092411,3,N,N,N,경보음+CCTV,2018,2019-02-28,Y,서울특별시 광진구청,02-450-5100,2019-03-08
생활방범-458,1,5,구의3동 212-26,서울특별시 광진구 아차산로63길 10,서울특별시 광진구 구의3동 212-26,37.54016,127.092705,3,N,N,N,경보음+CCTV,2018,2019-02-28,Y,서울특별시 광진구청,02-450-5100,2019-03-08
생활방범-459,1,5,광장동 187-13 맞은 편,서울특별시 광진구 아차산로 78길 153,서울특별시 광진구 광장동 187-13 맞은 편,37.548587,127.109183,3,N,N,N,경보음+CCTV,2018,2019-02-28,Y,서울특별시 광진구청,02-450-5100,2019-03-08
생활방범-460,1,5,광장동 332-9 앞 도로,서울특별시 광진구 광장로9길 6,서울특별시 광진구 광장동 332-9 앞 도로,37.548307,127.106132,3,N,N,N,경보음+CCTV,2018,2019-02-28,Y,서울특별시 광진구청,02-450-5100,2019-03-08
생활방범-461,1,5,자양4동 79-2,서울특별시 광진구 능동로3다길 4 (자양동),서울특별시 광진구 자양4동 79-2,37.534056,127.065241,3,N,N,N,경보음+CCTV,2017,2019-02-28,Y,서울특별시 광진구청,02-450-5100,2019-03-08
생활방범-462,1,5,중곡1동 258-13,서울특별시 광진구 긴고랑로 12길 40,서울특별시 광진구 중곡1동 258-13,37.561281,127.079874,3,N,N,N,경보음+CCTV,2018,2019-02-28,Y,서울특별시 광진구청,02-450-5100,2019-03-08
생활방범-463,1,5,중곡2동 141-14,서울특별시 광진구 긴고랑로 26길 23,서울특별시 광진구 중곡2동 141-14,37.558668,127.082443,3,N,N,N,경보음+CCTV,2018,2019-02-28,Y,서울특별시 광진구청,02-450-5100,2019-03-08
생활방범-464,1,5,중곡4동 106-10,서울특별시 광진구 영화사로9가길 39-15,서울특별시 광진구 중곡4동 106-10,37.556648,127.09368,3,N,N,N,경보음+CCTV,2018,2019-02-28,Y,서울특별시 광진구청,02-450-5100,2019-03-08
생활방범-465,1,5,화양동 111-26,서울특별시 광진구 광나루로 18길 21,서울특별시 광진구 화양동 111-26,37.546837,127.072036,3,N,N,N,경보음+CCTV,2018,2019-02-28,Y,서울특별시 광진구청,02-450-5100,2019-03-08
생활방범-466,1,5,군자동 125-101,서울특별시 광진구 동일로 44길 17,서울특별시 광진구 군자동 125-101,37.553188,127.071332,3,N,N,N,경보음+CCTV,2018,2019-02-28,Y,서울특별시 광진구청,02-450-5100,2019-03-08
생활방범-467,1,5,능동 224-18,서울특별시 광진구 능동로 32길 35,서울특별시 광진구 능동 224-18,37.554827,127.080815,3,N,N,N,경보음+CCTV,2018,2019-02-28,Y,서울특별시 광진구청,02-450-5100,2019-03-08
생활방범-468,1,5,자양1동 635-31,서울특별시 광진구 뚝섬로 631,서울특별시 광진구 자양1동 635-31,37.532191,127.079741,3,N,N,N,경보음+CCTV,2018,2019-02-28,Y,서울특별시 광진구청,02-450-5100,2019-03-08
생활방범-469,1,5,자양2동 682-15,서울특별시 광진구 뚝섬로 700,서울특별시 광진구 자양2동 682-15,37.5331,127.086943,3,N,N,N,경보음+CCTV,2018,2019-02-28,Y,서울특별시 광진구청,02-450-5100,2019-03-08
생활방범-470,1,5,자양3동 586-1,서울특별시 광진구 자양번영로 3길 27,서울특별시 광진구 자양3동 586-1,37.532194,127.073421,3,N,N,N,경보음+CCTV,2018,2019-02-28,Y,서울특별시 광진구청,02-450-5100,2019-03-08
생활방범-471,1,5,자양4동 64-11,서울특별시 광진구 능동로 3길 20,서울특별시 광진구 자양4동 64-11,37.533711,127.066584,3,N,N,N,경보음+CCTV,2018,2019-02-28,Y,서울특별시 광진구청,02-450-5100,2019-03-08
생활방범-472,1,5,구의1동 250-13,서울특별시 광진구 자양로28길 14,서울특별시 광진구 구의1동 250-13,37.542441,127.08508,3,N,N,N,경보음+CCTV,2018,2019-02-28,Y,서울특별시 광진구청,02-450-5100,2019-03-08
생활방범-473,1,5,구의2동 45-30,서울특별시 광진구 자양로44가길 18,서울특별시 광진구 구의2동 45-30,37.550798,127.094284,3,N,N,N,경보음+CCTV,2018,2019-02-28,Y,서울특별시 광진구청,02-450-5100,2019-03-08
생활방범-474,1,5,구의3동 224-49,서울특별시 광진구 구의로10길 12,서울특별시 광진구 구의3동 224-49,37.542236,127.090921,3,N,N,N,경보음+CCTV,2018,2019-02-28,Y,서울특별시 광진구청,02-450-5100,2019-03-08
생활방범-475,1,5,광장동 383,서울특별시 광진구 광장로1가길 49,서울특별시 광진구 광장동 383,37.548623,127.099892,3,N,N,N,경보음+CCTV,2018,2019-02-28,Y,서울특별시 광진구청,02-450-5100,2019-03-08
생활방범-476,1,5,용곡초 산책로,서울특별시 광진구 용마산로22길 82,서울특별시 광진구 중곡4동 176-1,37.567287,127.088952,3,N,N,N,경보음+CCTV,2018,2019-02-28,Y,서울특별시 광진구청,02-450-5100,2019-03-08
생활방범-477,1,5,용곡초 산책로,서울특별시 광진구 용마산로22길 82,서울특별시 광진구 중곡4동 176-1,37.567348,127.088381,3,N,N,N,경보음+CCTV,2018,2019-02-28,Y,서울특별시 광진구청,02-450-5100,2019-03-08
생활방범-478,1,5,용곡초 산책로,서울특별시 광진구 용마산로22길 82,서울특별시 광진구 중곡4동 176-1,37.567338,127.087959,3,N,N,N,경보음+CCTV,2018,2019-02-28,Y,서울특별시 광진구청,02-450-5100,2019-03-08
생활방범-479,1,5,용곡초 산책로,서울특별시 광진구 용마산로22길 82,서울특별시 광진구 중곡4동 176-1,37.566944,127.087873,3,N,N,N,경보음+CCTV,2018,2019-02-28,Y,서울특별시 광진구청,02-450-5100,2019-03-08
공원-001,1,1,광진구 구의2동 60-8,서울특별시 광진구 광진구 자양로42길 44 (구의동),서울특별시 광진구 구의2동 60-8,37.548406,127.092162,3,N,N,N,경보음+CCTV,2017,2019-02-28,Y,서울특별시 광진구청,02-450-5100,2019-03-08
공원-002,1,1,광진구 구의3동 206-10,서울특별시 광진구 광진구 광나루로52길 12 (구의동),서울특별시 광진구 구의3동 206-10,37.541338,127.094327,3,N,N,N,경보음+CCTV,2017,2019-02-28,Y,서울특별시 광진구청,02-450-5100,2019-03-08
공원-003,1,1,광진구 구의3동 216-4,서울특별시 광진구 광진구 아차산로60길 13-8,서울특별시 광진구 구의3동 216-4,37.538125,127.092374,3,N,N,N,경보음+CCTV,2017,2019-02-28,Y,서울특별시 광진구청,02-450-5100,2019-03-08
공원-004,1,1,광진구 구의3동 223-4,서울특별시 광진구 광진구 아차산로59길 49 (구의동),서울특별시 광진구 구의3동 223-4,37.540685,127.090662,3,N,N,N,경보음+CCTV,2017,2019-02-28,Y,서울특별시 광진구청,02-450-5100,2019-03-08
공원-005,1,1,광진구 구의3동 227-13,서울특별시 광진구 광진구 광나루로44길 32 (구의동),서울특별시 광진구 구의3동 227-13,37.542968,127.091139,3,N,N,N,경보음+CCTV,2017,2019-02-28,Y,서울특별시 광진구청,02-450-5100,2019-03-08
공원-006,1,1,광진구 구의3동 546-2,서울특별시 광진구 광진구 광나루로56길 86 (구의동),서울특별시 광진구 구의3동 546-2,37.536838,127.094816,3,N,N,N,경보음+CCTV,2017,2019-02-28,Y,서울특별시 광진구청,02-450-5100,2019-03-08
공원-007,1,1,광진구 구의3동 546-2,서울특별시 광진구 광진구 광나루로56길 86 (구의동),서울특별시 광진구 구의3동 546-2,37.537439,127.094521,3,N,N,N,경보음+CCTV,2017,2019-02-28,Y,서울특별시 광진구청,02-450-5100,2019-03-08
공원-008,1,1,동일로56길 29 주소의 건물뒷편,서울특별시 광진구 광진구 동일로56길 29 (군자동),서울특별시 광진구 군자동 159-1,37.556095,127.073742,3,N,N,N,경보음+CCTV,2017,2019-02-28,Y,서울특별시 광진구청,02-450-5100,2019-03-08
공원-009,1,1,능동 소공원,서울특별시 광진구 광진구 천호대로116길 66 (능동),서울특별시 광진구 능동 242-26,37.552504,127.082984,3,N,N,N,경보음+CCTV,2017,2019-02-28,Y,서울특별시 광진구청,02-450-5100,2019-03-08
공원-010,1,1,광진구 능동 367-2,서울특별시 광진구 광진구 능동로30길 23 (능동),서울특별시 광진구 능동 367-2,37.553641,127.079282,3,N,N,N,경보음+CCTV,2017,2019-02-28,Y,서울특별시 광진구청,02-450-5100,2019-03-08
공원-011,1,1,광진구 능동 367-2,서울특별시 광진구 광진구 능동로30길 23 (능동),서울특별시 광진구 능동 367-2,37.553823,127.079433,3,N,N,N,경보음+CCTV,2017,2019-02-28,Y,서울특별시 광진구청,02-450-5100,2019-03-08
공원-012,1,1,광진구 자양1동 630,서울특별시 광진구 광진구 자양로13길 41 (자양동),서울특별시 광진구 자양1동 630,37.534437,127.082218,3,N,N,N,경보음+CCTV,2017,2019-02-28,Y,서울특별시 광진구청,02-450-5100,2019-03-08
공원-013,1,1,광진구 자양1동 804-10,서울특별시 광진구 광진구 아차산로40길 46 (자양동),서울특별시 광진구 자양1동 804-10,37.535906,127.077713,3,N,N,N,경보음+CCTV,2017,2019-02-28,Y,서울특별시 광진구청,02-450-5100,2019-03-08
공원-014,1,1,광진구 자양2동 686-52,서울특별시 광진구 광진구 뚝섬로62길 24 (자양동),서울특별시 광진구 자양2동 686-52,37.532219,127.087835,3,N,N,N,경보음+CCTV,2017,2019-02-28,Y,서울특별시 광진구청,02-450-5100,2019-03-08
공원-015,1,1,자양현대홈타운10차 1001동 뒷편,서울특별시 광진구 광진구 뚝섬로34길 25-19 (자양동),서울특별시 광진구 자양3동 792-1,37.533744,127.069856,3,N,N,N,경보음+CCTV,2017,2019-02-28,Y,서울특별시 광진구청,02-450-5100,2019-03-08
공원-016,1,1,광진구 자양4동 5-7,서울특별시 광진구 광진구 아차산로32길 17 (자양동),서울특별시 광진구 자양4동 5-7,37.53934,127.068233,3,N,N,N,경보음+CCTV,2017,2019-02-28,Y,서울특별시 광진구청,02-450-5100,2019-03-08
공원-017,1,1,광진구 자양4동 5-7,서울특별시 광진구 광진구 아차산로32길 17 (자양동),서울특별시 광진구 자양4동 5-7,37.539213,127.068561,3,N,N,N,경보음+CCTV,2017,2019-02-28,Y,서울특별시 광진구청,02-450-5100,2019-03-08
공원-018,1,1,세모꼴 공원,서울특별시 광진구 광진구 삼학사로1길 40,서울특별시 광진구 자양1동 776-1,37.538677,127.08173,3,N,N,N,경보음+CCTV,2017,2019-02-28,Y,서울특별시 광진구청,02-450-5100,2019-03-08
공원-019,1,1,신양초사거리,,서울특별시 광진구 자양4동 553-22,37.535152,127.067813,3,N,N,N,경보음+CCTV,2017,2019-02-28,Y,서울특별시 광진구청,02-450-5100,2019-03-08
공원-020,1,1,세븐일레븐 맞은편,,서울특별시 광진구 자양4동 74-21,37.533024,127.066375,3,N,N,N,경보음+CCTV,2017,2019-02-28,Y,서울특별시 광진구청,02-450-5100,2019-03-08
공원-021,1,1,긴고랑로5길 10,서울특별시 광진구 광진구 긴고랑로5길 10 (중곡동),서울특별시 광진구 중곡1동 232-44,37.564799,127.079352,3,N,N,N,경보음+CCTV,2017,2019-02-28,Y,서울특별시 광진구청,02-450-5100,2019-03-08
공원-022,1,1,한마음공원,,서울특별시 광진구 중곡2동 51-6,37.559728,127.08411,3,N,N,N,경보음+CCTV,2017,2019-02-28,Y,서울특별시 광진구청,02-450-5100,2019-03-08
공원-023,1,1,광진구 중곡3동 695,서울특별시 광진구 광진구 동일로76나길 20 (중곡동),서울특별시 광진구 중곡3동 695,37.56859,127.080429,3,N,N,N,경보음+CCTV,2017,2019-02-28,Y,서울특별시 광진구청,02-450-5100,2019-03-08
공원-024,1,1,중곡동 마을공원,서울특별시 광진구 광진구 용마산로33길 25 (중곡동),서울특별시 광진구 중곡3동 195-1,37.570073,127.084493,3,N,N,N,경보음+CCTV,2017,2019-02-28,Y,서울특별시 광진구청,02-450-5100,2019-03-08
공원-025,1,1,중곡동 마을공원,서울특별시 광진구 광진구 영화사로7길 25 (중곡동),서울특별시 광진구 중곡4동 100-16,37.557027,127.092146,3,N,N,N,경보음+CCTV,2017,2019-02-28,Y,서울특별시 광진구청,02-450-5100,2019-03-08
공원-026,1,1,긴고랑고원,,서울특별시 광진구 중곡4동 68-19,37.559136,127.09091,3,N,N,N,경보음+CCTV,2017,2019-02-28,Y,서울특별시 광진구청,02-450-5100,2019-03-08
공원-027,1,1,광진구 화양동 32-1,서울특별시 광진구 광진구 동일로28길 16 (화양동),서울특별시 광진구 화양동 32-1,37.546632,127.067697,3,N,N,N,경보음+CCTV,2017,2019-02-28,Y,서울특별시 광진구청,02-450-5100,2019-03-08
공원-028,1,1,광진구 화양동 45-3,서울특별시 광진구 광진구 아차산로25길 27 (화양동),서울특별시 광진구 화양동 45-3,37.542969,127.066814,3,N,N,N,경보음+CCTV,2017,2019-02-28,Y,서울특별시 광진구청,02-450-5100,2019-03-08
공원-029,1,1,화양동정자마당,,서울특별시 광진구 화양동 110-34,37.54664,127.071834,3,N,N,N,경보음+CCTV,2017,2019-02-28,Y,서울특별시 광진구청,02-450-5100,2019-03-08
공원-030,1,1,광진구 화양동 12-55,서울특별시 광진구 광진구 군자로3길 15 (화양동),서울특별시 광진구 화양동 12-55,37.544634,127.070651,3,N,N,N,경보음+CCTV,2017,2019-02-28,Y,서울특별시 광진구청,02-450-5100,2019-03-08
공원-031,1,1,광진구 화양동 8-36,서울특별시 광진구 광진구 아차산로31길 14 (화양동),서울특별시 광진구 화양동 8-36,37.541618,127.069782,3,N,N,N,경보음+CCTV,2017,2019-02-28,Y,서울특별시 광진구청,02-450-5100,2019-03-08
공원-032,1,1,광진구 자양2동 651-50,서울특별시 광진구 광진구 뚝섬로56길 28 (자양동),서울특별시 광진구 자양2동 651-50,37.530247,127.082347,3,N,N,N,경보음+CCTV,2017,2019-02-28,Y,서울특별시 광진구청,02-450-5100,2019-03-08
공원-033,1,1,광진구 구의2동 38,서울특별시 광진구 광진구 천호대로 717-18 (구의동),서울특별시 광진구 구의2동 38,37.549358,127.094714,3,N,N,N,경보음+CCTV,2017,2019-02-28,Y,서울특별시 광진구청,02-450-5100,2019-03-08
공원-034,1,1,광진구 구의2동 38,서울특별시 광진구 광진구 천호대로 717-18 (구의동),서울특별시 광진구 구의2동 38,37.548197,127.096445,3,N,N,N,경보음+CCTV,2018,2019-02-28,Y,서울특별시 광진구청,02-450-5100,2019-03-08
공원-035,1,1,천호대로 공원,서울특별시 광진구 광진구 천호대로 717-18 (구의동),서울특별시 광진구 구의2동 38,37.548014,127.097023,3,N,N,N,경보음+CCTV,2018,2019-02-28,Y,서울특별시 광진구청,02-450-5100,2019-03-08
공원-036,1,1,천호대로 공원,서울특별시 광진구 광진구 천호대로 717-18 (구의동),서울특별시 광진구 구의2동 38,37.547955,127.09821,3,N,N,N,경보음+CCTV,2018,2019-02-28,Y,서울특별시 광진구청,02-450-5100,2019-03-08
공원-037,1,1,천호대로 공원,서울특별시 광진구 광진구 천호대로 717-18 (구의동),서울특별시 광진구 구의2동 38,37.547597,127.098349,3,N,N,N,경보음+CCTV,2018,2019-02-28,Y,서울특별시 광진구청,02-450-5100,2019-03-08
공원-038,1,1,천호대로 공원,서울특별시 광진구 광진구 천호대로 717-18 (구의동),서울특별시 광진구 구의2동 38,37.546436,127.098236,3,N,N,N,경보음+CCTV,2018,2019-02-28,Y,서울특별시 광진구청,02-450-5100,2019-03-08
공원-044,1,1,동자 어린이공원,서울특별시 광진구 광진구 자양번영로3길 16 (자양동),서울특별시 광진구 자양동 582-19,37.532157,127.074405,3,N,N,N,경보음+CCTV,2018,2019-02-28,Y,서울특별시 광진구청,02-450-5100,2019-03-08
공원-045,1,1,온달 어린이공원,서울특별시 광진구 광진구 아차산로73길 15 (광장동),서울특별시 광진구 광장동 242-1,37.546022,127.103908,3,N,N,N,경보음+CCTV,2018,2019-02-28,Y,서울특별시 광진구청,02-450-5100,2019-03-08
공원-046,1,1,평강 어린이공원,서울특별시 광진구 광진구 광장로1가길 31 (광장동),서울특별시 광진구 광장동 387-1,37.548216,127.1006,3,N,N,N,경보음+CCTV,2018,2019-02-28,Y,서울특별시 광진구청,02-450-5100,2019-03-08
어린이-004,1,5,광장초등학교,서울특별시 광진구 광진구 광장로1길 27 (광장동),서울특별시 광진구 광장동 389,37.548038,127.10103,3,N,N,N,경보음+CCTV,2017,2019-02-28,Y,서울특별시 광진구청,02-450-5100,2019-03-08
어린이-005,1,5,광남유치원,서울특별시 광진구 광진구 아차산로70길 62 (광장동),서울특별시 광진구 광장동 484,37.541923,127.101103,3,N,N,N,경보음+CCTV,2017,2019-02-28,Y,서울특별시 광진구청,02-450-5100,2019-03-08
어린이-006,1,5,광남초등학교,서울특별시 광진구 광진구 아차산로70길 35 (광장동),서울특별시 광진구 광장동 554,37.542134,127.101773,3,N,N,N,경보음+CCTV,2017,2019-02-28,Y,서울특별시 광진구청,02-450-5100,2019-03-08
어린이-007,1,5,양진초등학교,서울특별시 광진구 광진구 아차산로 503-23 (광장동 청구아파트),서울특별시 광진구 광장동 566,37.543533,127.09653,3,N,N,N,경보음+CCTV,2017,2019-02-28,Y,서울특별시 광진구청,02-450-5100,2019-03-08
어린이-008,1,5,청구이화유치원,서울특별시 광진구 광진구 아차산로 503-23 (광장동 ) 광진구 워커힐로 13 건너편,서울특별시 광진구 광장동 566,37.543383,127.095514,3,N,N,N,경보음+CCTV,2017,2019-02-28,Y,서울특별시 광진구청,02-450-5100,2019-03-08
어린이-009,1,5,광장초등학교,서울특별시 광진구 광진구 아차산로73길 48 (광장동),서울특별시 광진구 광장동 248-22,37.546912,127.102248,3,N,N,N,경보음+CCTV,2017,2019-02-28,Y,서울특별시 광진구청,02-450-5100,2019-03-08
어린이-010,1,5,광장초등학교,서울특별시 광진구 광진구 광장로3길 19 (광장동),서울특별시 광진구 광장동 258-16,37.547968,127.102771,3,N,N,N,경보음+CCTV,2017,2019-02-28,Y,서울특별시 광진구청,02-450-5100,2019-03-08
어린이-016,1,5,양진초등학교,서울특별시 광진구 광진구 아차산로69길 29 (광장동),서울특별시 광진구 광장동 414-28,37.544075,127.09728,3,N,N,N,경보음+CCTV,2017,2019-02-28,Y,서울특별시 광진구청,02-450-5100,2019-03-08
어린이-017,1,5,양진병설유치원,서울특별시 광진구 광진구 아차산로 511 (광장동),서울특별시 광진구 광장동 425-2,37.54223,127.098216,3,N,N,N,경보음+CCTV,2017,2019-02-28,Y,서울특별시 광진구청,02-450-5100,2019-03-08
어린이-019,1,5,광남초등학교,서울특별시 광진구 광진구 아차산로70길 61 (광장동) 광진구 아차산로70길 17-62 광남중,서울특별시 광진구 광장동 554-5,37.540265,127.102196,3,N,N,N,경보음+CCTV,2017,2019-02-28,Y,서울특별시 광진구청,02-450-5100,2019-03-08
어린이-020,1,5,광남초등학교,서울특별시 광진구 광진구 아차산로70길 61 (광장동 광장현대아파트),서울특별시 광진구 광장동 554-7,37.540714,127.100002,3,N,N,N,경보음+CCTV,2017,2019-02-28,Y,서울특별시 광진구청,02-450-5100,2019-03-08
어린이-021,1,5,양진초등학교,서울특별시 광진구 광진구 천호대로140길 40 (광장동),서울특별시 광진구 광장동 577-3,37.544369,127.100242,3,N,N,N,경보음+CCTV,2017,2019-02-28,Y,서울특별시 광진구청,02-450-5100,2019-03-08
어린이-023,1,5,신나는어린이집,서울특별시 광진구 광진구 광나루로38길 73 (구의동),서울특별시 광진구 구의1동 240-6,37.541825,127.087242,3,N,N,N,경보음+CCTV,2017,2019-02-28,Y,서울특별시 광진구청,02-450-5100,2019-03-08
어린이-027,1,5,구의초등학교,서울특별시 광진구 광진구 광나루로30다길 3 (구의동),서울특별시 광진구 구의1동 641-4,37.543487,127.0815,3,N,N,N,경보음+CCTV,2017,2019-02-28,Y,서울특별시 광진구청,02-450-5100,2019-03-08
어린이-028,1,5,구의초등학교,서울특별시 광진구 광진구 자양로23가길 16 (구의동),서울특별시 광진구 구의1동 652-5,37.542206,127.081667,3,N,N,N,경보음+CCTV,2017,2019-02-28,Y,서울특별시 광진구청,02-450-5100,2019-03-08
어린이-029,1,5,구의초등학교,서울특별시 광진구 광진구 자양로23길 21 (구의동),서울특별시 광진구 구의1동 655-3,37.541791,127.08243,3,N,N,N,경보음+CCTV,2017,2019-02-28,Y,서울특별시 광진구청,02-450-5100,2019-03-08
어린이-030,1,5,동의초등학교,서울특별시 광진구 광진구 영화사로 105 (구의동),서울특별시 광진구 구의2동 18,37.554046,127.097827,3,N,N,N,경보음+CCTV,2017,2019-02-28,Y,서울특별시 광진구청,02-450-5100,2019-03-08
어린이-031,1,5,구의2동어린이집,서울특별시 광진구 광진구 워커힐로 93 (구의동),서울특별시 광진구 구의2동 37-6,37.550252,127.096456,3,N,N,N,경보음+CCTV,2017,2019-02-28,Y,서울특별시 광진구청,02-450-5100,2019-03-08
어린이-032,1,5,경복초등학교,서울특별시 광진구 광진구 천호대로130길 26 (구의동),서울특별시 광진구 구의2동 76-10,37.550754,127.088791,3,N,N,N,경보음+CCTV,2017,2019-02-28,Y,서울특별시 광진구청,02-450-5100,2019-03-08
어린이-033,1,5,경복초등학교,서울특별시 광진구 광진구 자양로 247 (구의동),서울특별시 광진구 구의2동 79-8,37.54873,127.089008,3,N,N,N,경보음+CCTV,2017,2019-02-28,Y,서울특별시 광진구청,02-450-5100,2019-03-08
어린이-034,1,5,경원유치원,서울특별시 광진구 광진구 영화사로 77-1 (구의동),서울특별시 광진구 구의2동 16-6,37.554798,127.094703,3,N,N,N,경보음+CCTV,2017,2019-02-28,Y,서울특별시 광진구청,02-450-5100,2019-03-08
어린이-035,1,5,영화유치원,서울특별시 광진구 광진구 영화사로 98-1 (구의동),서울특별시 광진구 구의2동 19-3,37.554575,127.096799,3,N,N,N,경보음+CCTV,2017,2019-02-28,Y,서울특별시 광진구청,02-450-5100,2019-03-08
어린이-036,1,5,동의초등학교,서울특별시 광진구 광진구 자양로50길 53 (구의동 남광하이츠빌라),서울특별시 광진구 구의2동 24-10,37.552758,127.095347,3,N,N,N,경보음+CCTV,2017,2019-02-28,Y,서울특별시 광진구청,02-450-5100,2019-03-08
어린이-037,1,5,동의초등학교,서울특별시 광진구 광진구 자양로50길 79 (구의동 유진아트빌라),서울특별시 광진구 구의2동 23-16,37.552994,127.09677,3,N,N,N,경보음+CCTV,2017,2019-02-28,Y,서울특별시 광진구청,02-450-5100,2019-03-08
어린이-038,1,5,동의초등학교,서울특별시 광진구 광진구 자양로52길 21-19 (구의동),서울특별시 광진구 구의2동 25-37,37.553615,127.095027,3,N,N,N,경보음+CCTV,2017,2019-02-28,Y,서울특별시 광진구청,02-450-5100,2019-03-08
어린이-039,1,5,동의초등학교,서울특별시 광진구 광진구 자양로52길 3-9 (구의동),서울특별시 광진구 구의2동 26-18,37.553785,127.093945,3,N,N,N,경보음+CCTV,2017,2019-02-28,Y,서울특별시 광진구청,02-450-5100,2019-03-08
어린이-040,1,5,슬기유치원,서울특별시 광진구 광진구 자양로50길 13 (구의동),서울특별시 광진구 구의2동 31-15,37.552231,127.093139,3,N,N,N,경보음+CCTV,2017,2019-02-28,Y,서울특별시 광진구청,02-450-5100,2019-03-08
어린이-041,1,5,광진초등학교,서울특별시 광진구 광진구 자양로42길 53 (구의동 광진로얄빌라),서울특별시 광진구 구의2동 59-39,37.548286,127.093025,3,N,N,N,경보음+CCTV,2017,2019-02-28,Y,서울특별시 광진구청,02-450-5100,2019-03-08
어린이-042,1,5,광진초등학교,서울특별시 광진구 광진구 자양로40길 41 (구의동),서울특별시 광진구 구의2동 60-44,37.547592,127.090792,3,N,N,N,경보음+CCTV,2017,2019-02-28,Y,서울특별시 광진구청,02-450-5100,2019-03-08
어린이-043,1,5,경복초등학교,,서울특별시 광진구 구의2동 613-38,37.549104,127.087164,3,N,N,N,경보음+CCTV,2017,2019-02-28,Y,서울특별시 광진구청,02-450-5100,2019-03-08
어린이-044,1,5,경복초등학교,서울특별시 광진구 자양로39길 19 (구의동),서울특별시 광진구 구의2동 614-6,37.549282,127.088435,3,N,N,N,경보음+CCTV,2017,2019-02-28,Y,서울특별시 광진구청,02-450-5100,2019-03-08
어린이-045,1,5,좋은어린이집 보행우선구역,서울특별시 광진구 광진구 구의강변로3길 19 (구의동),서울특별시 광진구 구의3동 593,37.536121,127.091054,3,N,N,N,경보음+CCTV,2017,2019-02-28,Y,서울특별시 광진구청,02-450-5100,2019-03-08
어린이-046,1,5,구의3동어린이집,서울특별시 광진구 광진구 광나루로56길 34 (구의동),서울특별시 광진구 구의3동 611,37.539295,127.095253,3,N,N,N,경보음+CCTV,2017,2019-02-28,Y,서울특별시 광진구청,02-450-5100,2019-03-08
어린이-047,1,5,구남초등학교,서울특별시 광진구 광진구 구의강변로 84 (구의동 세양아파트),서울특별시 광진구 구의3동 658,37.537162,127.093808,3,N,N,N,경보음+CCTV,2017,2019-02-28,Y,서울특별시 광진구청,02-450-5100,2019-03-08
어린이-050,1,5,구남초등학교,서울특별시 광진구 광진구 구의강변로 86 세양아파트 입구,서울특별시 광진구 구의3동 214-6,37.538138,127.093682,3,N,N,N,경보음+CCTV,2017,2019-02-28,Y,서울특별시 광진구청,02-450-5100,2019-03-08
어린이-051,1,5,구남초등학교,서울특별시 광진구 구의3동 215-10 교통섬,서울특별시 광진구 구의3동 215-10,37.537305,127.0934,3,N,N,N,경보음+CCTV,2017,2019-02-28,Y,서울특별시 광진구청,02-450-5100,2019-03-08
어린이-052,1,5,샬롬유치원,서울특별시 광진구 광진구 광나루로44길 32 (구의동),서울특별시 광진구 구의3동 227-13,37.542815,127.091246,3,N,N,N,경보음+CCTV,2017,2019-02-28,Y,서울특별시 광진구청,02-450-5100,2019-03-08
어린이-053,1,5,구남초 보행우선구역,서울특별시 광진구 광진구 아차산로 426 (구의동),서울특별시 광진구 구의3동 245-11,37.538004,127.089532,3,N,N,N,경보음+CCTV,2017,2019-02-28,Y,서울특별시 광진구청,02-450-5100,2019-03-08
어린이-054,1,5,구남초 보행우선구역,서울특별시 광진구 광진구 강변역로2길 18 (구의동),서울특별시 광진구 구의3동 587-4,37.537386,127.091197,3,N,N,N,경보음+CCTV,2017,2019-02-28,Y,서울특별시 광진구청,02-450-5100,2019-03-08
어린이-055,1,5,구남초등학교,서울특별시 광진구 광진구 구의강변로3가길 24 (구의동 동서울빌라),서울특별시 광진구 구의3동 587-60,37.536742,127.091799,3,N,N,N,경보음+CCTV,2017,2019-02-28,Y,서울특별시 광진구청,02-450-5100,2019-03-08
어린이-057,1,5,구남초등학교 정문,서울특별시 광진구 광진구 구의강변로 69 구남초교 정문 앞,서울특별시 광진구 구의3동 587-95,37.537192,127.092931,3,N,N,N,경보음+CCTV,2017,2019-02-28,Y,서울특별시 광진구청,02-450-5100,2019-03-08
어린이-059,1,5,선경유치원,서울특별시 광진구 광진구 구의강변로 35 (구의동),서울특별시 광진구 구의3동 596-6,37.534068,127.091512,3,N,N,N,경보음+CCTV,2017,2019-02-28,Y,서울특별시 광진구청,02-450-5100,2019-03-08
어린이-060,1,5,프라임유치원,서울특별시 광진구 광진구 광나루로56길 5 (구의동),서울특별시 광진구 구의3동 631-1,37.538897,127.098059,3,N,N,N,경보음+CCTV,2017,2019-02-28,Y,서울특별시 광진구청,02-450-5100,2019-03-08
어린이-061,1,5,동의초등학교,서울특별시 광진구 광진구 영화사로 111 (구의동),서울특별시 광진구 구2의동 4-5,37.553577,127.099441,3,N,N,N,경보음+CCTV,2017,2019-02-28,Y,서울특별시 광진구청,02-450-5100,2019-03-08
어린이-062,1,5,우리티움아이어린이집,서울특별시 광진구 광진구 구의로4길 15 (구의동),서울특별시 광진구 구의3동 223-19,37.540186,127.090623,3,N,N,N,경보음+CCTV,2017,2019-02-28,Y,서울특별시 광진구청,02-450-5100,2019-03-08
어린이-063,1,5,현정유치원,서울특별시 광진구 광진구 광나루로 532 (구의동),서울특별시 광진구 구의1동 230-19,37.544918,127.088375,3,N,N,N,경보음+CCTV,2017,2019-02-28,Y,서울특별시 광진구청,02-450-5100,2019-03-08
어린이-064,1,5,구남초등학교,서울특별시 광진구 아차산로 435 강변SK뷰 교통섬,서울특별시 광진구 구의3동 245-8,37.538304,127.090683,3,N,N,N,경보음+CCTV,2017,2019-02-28,Y,서울특별시 광진구청,02-450-5100,2019-03-08
어린이-065,1,5,동의초등학교,서울특별시 광진구 광진구 영화사로 87-1 (구의동 동성주택),서울특별시 광진구 구의2동 560-17,37.554999,127.095849,3,N,N,N,경보음+CCTV,2017,2019-02-28,Y,서울특별시 광진구청,02-450-5100,2019-03-08
어린이-066,1,5,광진초등학교,서울특별시 광진구 광진구 천호대로134길 2 (구의동),서울특별시 광진구 구의2동 71-13,37.549294,127.090816,3,N,N,N,경보음+CCTV,2017,2019-02-28,Y,서울특별시 광진구청,02-450-5100,2019-03-08
어린이-067,1,5,세종초등학교,서울특별시 광진구 광진구 능동로 209 (군자동),서울특별시 광진구 군자동 98(군자동 104-2),37.552981,127.072353,3,N,N,N,경보음+CCTV,2017,2019-02-28,Y,서울특별시 광진구청,02-450-5100,2019-03-08
어린이-068,1,5,꿈동산몬테소리어린이집,서울특별시 광진구 광진구 면목로 20 (군자동),서울특별시 광진구 군자동 49-9,37.555937,127.075817,3,N,N,N,경보음+CCTV,2017,2019-02-28,Y,서울특별시 광진구청,02-450-5100,2019-03-08
어린이-069,1,5,동심유치원,서울특별시 광진구 광진구 군자로12길 45 (군자동),서울특별시 광진구 군자동 100-5,37.552293,127.072528,3,N,N,N,경보음+CCTV,2017,2019-02-28,Y,서울특별시 광진구청,02-450-5100,2019-03-08
어린이-070,1,5,선양유치원(세종초등학교),서울특별시 광진구 광진구 동일로52길 27 (군자동),서울특별시 광진구 군자동 115-1,37.55441,127.072983,3,N,N,N,경보음+CCTV,2017,2019-02-28,Y,서울특별시 광진구청,02-450-5100,2019-03-08
어린이-071,1,5,선양유치원,서울특별시 광진구 광진구 동일로52길 10 (군자동 파인하우스),서울특별시 광진구 군자동 117-39,37.554828,127.071576,3,N,N,N,경보음+CCTV,2017,2019-02-28,Y,서울특별시 광진구청,02-450-5100,2019-03-08
어린이-074,1,5,세종초등학교,서울특별시 광진구 광진구 군자로 127 세종대 기숙사 코너,서울특별시 광진구 군자동 149-6,37.553768,127.073479,3,N,N,N,경보음+CCTV,2017,2019-02-28,Y,서울특별시 광진구청,02-450-5100,2019-03-08
어린이-078,1,5,장안초등학교,서울특별시 광진구 광진구 동일로 222 (군자동),서울특별시 광진구 군자동 349-1,37.551705,127.069487,3,N,N,N,경보음+CCTV,2017,2019-02-28,Y,서울특별시 광진구청,02-450-5100,2019-03-08
어린이-080,1,5,장안초등학교,서울특별시 광진구 광진구 군자로 70 화양슈퍼 코너,서울특별시 광진구 군자동 362-1,37.549799,127.070934,3,N,N,N,경보음+CCTV,2017,2019-02-28,Y,서울특별시 광진구청,02-450-5100,2019-03-08
어린이-081,1,5,장안초등학교,서울특별시 광진구 광진구 군자로 70 두산위브 앞,서울특별시 광진구 군자동 362-3,37.548913,127.070786,3,N,N,N,경보음+CCTV,2017,2019-02-28,Y,서울특별시 광진구청,02-450-5100,2019-03-08
어린이-082,1,5,장안초등학교,서울특별시 광진구 광진구 군자로 74 (군자동),서울특별시 광진구 군자동 365-1,37.55113,127.071622,3,N,N,N,경보음+CCTV,2017,2019-02-28,Y,서울특별시 광진구청,02-450-5100,2019-03-08
어린이-083,1,5,수정어린이집,서울특별시 광진구 광진구 천호대로102길 36 (군자동),서울특별시 광진구 군자동 464-15,37.557627,127.073473,3,N,N,N,경보음+CCTV,2017,2019-02-28,Y,서울특별시 광진구청,02-450-5100,2019-03-08
어린이-084,1,5,선화유치원,서울특별시 광진구 광진구 천호대로 664 (능동),서울특별시 광진구 능동 25,37.549511,127.087587,3,N,N,N,경보음+CCTV,2017,2019-02-28,Y,서울특별시 광진구청,02-450-5100,2019-03-08
어린이-085,1,5,능동어린이집,서울특별시 광진구 광진구 천호대로114길 25 (능동),서울특별시 광진구 능동 239-1,37.554668,127.08241,3,N,N,N,경보음+CCTV,2017,2019-02-28,Y,서울특별시 광진구청,02-450-5100,2019-03-08
어린이-087,1,5,구의초등학교,서울특별시 광진구 광진구 자양로23길 7 (자양동),서울특별시 광진구 자양1동 765,37.541409,127.083175,3,N,N,N,경보음+CCTV,2017,2019-02-28,Y,서울특별시 광진구청,02-450-5100,2019-03-08
어린이-089,1,5,자양초등학교,서울특별시 광진구 광진구 아차산로 344 (자양동),서울특별시 광진구 자양1동 221-1,37.537179,127.080718,3,N,N,N,경보음+CCTV,2017,2019-02-28,Y,서울특별시 광진구청,02-450-5100,2019-03-08
어린이-090,1,5,자양초등학교,서울특별시 광진구 광진구 아차산로44길 36 (자양동),서울특별시 광진구 자양1동 222-17,37.536535,127.078942,3,N,N,N,경보음+CCTV,2017,2019-02-28,Y,서울특별시 광진구청,02-450-5100,2019-03-08
어린이-095,1,5,성산유치원,서울특별시 광진구 광진구 자양로 55 (자양동),서울특별시 광진구 자양1동 658-16,37.53333,127.084712,3,N,N,N,경보음+CCTV,2017,2019-02-28,Y,서울특별시 광진구청,02-450-5100,2019-03-08
어린이-097,1,5,신자초등학교,서울특별시 광진구 광진구 뚝섬로46길 64 (자양동),서울특별시 광진구 자양2동 591,37.530385,127.076219,3,N,N,N,경보음+CCTV,2017,2019-02-28,Y,서울특별시 광진구청,02-450-5100,2019-03-08
어린이-098,1,5,신자초등학교,서울특별시 광진구 광진구 뚝섬로52길 74 (자양동),서울특별시 광진구 자양2동 594,37.529944,127.078483,3,N,N,N,경보음+CCTV,2017,2019-02-28,Y,서울특별시 광진구청,02-450-5100,2019-03-08
어린이-099,1,5,자양어린이집,서울특별시 광진구 광진구 자양번영로 32 (자양동),서울특별시 광진구 자양2동 601,37.532677,127.075588,3,N,N,N,경보음+CCTV,2017,2019-02-28,Y,서울특별시 광진구청,02-450-5100,2019-03-08
어린이-100,1,5,신자초등학교,서울특별시 광진구 광진구 자양번영로6길 20 (자양동),서울특별시 광진구 자양2동 602,37.532341,127.076813,3,N,N,N,경보음+CCTV,2017,2019-02-28,Y,서울특별시 광진구청,02-450-5100,2019-03-08
어린이-101,1,5,성자초등학교,서울특별시 광진구 광진구 뚝섬로56길 7 (자양동),서울특별시 광진구 자양2동 662,37.530971,127.082654,3,N,N,N,경보음+CCTV,2017,2019-02-28,Y,서울특별시 광진구청,02-450-5100,2019-03-08
어린이-103,1,5,성동초등학교,서울특별시 광진구 광진구 자양로6길 40 (자양동 대양샤인빌),서울특별시 광진구 자양2동 684,37.532492,127.088972,3,N,N,N,경보음+CCTV,2017,2019-02-28,Y,서울특별시 광진구청,02-450-5100,2019-03-08
어린이-104,1,5,양남초등학교,서울특별시 광진구 광진구 뚝섬로62길 47 (자양동 효성맨션),서울특별시 광진구 자양2동 689,37.530927,127.088604,3,N,N,N,경보음+CCTV,2017,2019-02-28,Y,서울특별시 광진구청,02-450-5100,2019-03-08
어린이-105,1,5,성동초등학교,서울특별시 광진구 광진구 뚝섬로64길 45 (자양동),서울특별시 광진구 자양2동 693,37.532572,127.090188,3,N,N,N,경보음+CCTV,2017,2019-02-28,Y,서울특별시 광진구청,02-450-5100,2019-03-08
어린이-106,1,5,신자초등학교,서울특별시 광진구 광진구 자양강변길 297 (자양동 신호빌라트),서울특별시 광진구 자양2동 591-12,37.529888,127.074778,3,N,N,N,경보음+CCTV,2017,2019-02-28,Y,서울특별시 광진구청,02-450-5100,2019-03-08
어린이-107,1,5,신자초등학교,서울특별시 광진구 광진구 자양번영로4길 42-22 (자양동),서울특별시 광진구 자양2동 597-42,37.530198,127.077314,3,N,N,N,경보음+CCTV,2017,2019-02-28,Y,서울특별시 광진구청,02-450-5100,2019-03-08
어린이-108,1,5,신자초등학교,서울특별시 광진구 광진구 자양번영로 12 (자양동),서울특별시 광진구 자양2동 600-15,37.53074,127.075034,3,N,N,N,경보음+CCTV,2017,2019-02-28,Y,서울특별시 광진구청,02-450-5100,2019-03-08
어린이-110,1,5,성자초등학교,서울특별시 광진구 광진구 뚝섬로 656 성자초교앞 사거리,서울특별시 광진구 자양2동 652-33,37.531522,127.082579,3,N,N,N,경보음+CCTV,2017,2019-02-28,Y,서울특별시 광진구청,02-450-5100,2019-03-08
어린이-111,1,5,성자초등학교,서울특별시 광진구 광진구 뚝섬로58길 13 노인보호센터 앞,서울특별시 광진구 자양2동 662-16,37.531423,127.084435,3,N,N,N,경보음+CCTV,2017,2019-02-28,Y,서울특별시 광진구청,02-450-5100,2019-03-08
어린이-112,1,5,자양유치원,서울특별시 광진구 광진구 자양로5길 33 (자양동,서울특별시 광진구 자양2동 663-21,37.5312,127.083941,3,N,N,N,경보음+CCTV,2017,2019-02-28,Y,서울특별시 광진구청,02-450-5100,2019-03-08
어린이-113,1,5,성자초등학교,,서울특별시 광진구 자양2동 663-35,37.530695,127.08386,3,N,N,N,경보음+CCTV,2017,2019-02-28,Y,서울특별시 광진구청,02-450-5100,2019-03-08
어린이-116,1,5,양남초등학교,서울특별시 광진구 광진구 자양로6길 8 (자양동),서울특별시 광진구 자양2동 685-2,37.532061,127.086392,3,N,N,N,경보음+CCTV,2017,2019-02-28,Y,서울특별시 광진구청,02-450-5100,2019-03-08
어린이-117,1,5,양남초등학교,서울특별시 광진구 광진구 뚝섬로62길 33-8 (자양동 목화맨션),서울특별시 광진구 자양2동 688-1,37.531917,127.088405,3,N,N,N,경보음+CCTV,2017,2019-02-28,Y,서울특별시 광진구청,02-450-5100,2019-03-08
어린이-119,1,5,성동초등학교,,서울특별시 광진구 자양2동 694-1,37.533576,127.090207,3,N,N,N,경보음+CCTV,2017,2019-02-28,Y,서울특별시 광진구청,02-450-5100,2019-03-08
어린이-120,1,5,동자초등학교,서울특별시 광진구 광진구 뚝섬로40길 12 (자양동),서울특별시 광진구 자양3동 461-1,37.533634,127.073024,3,N,N,N,경보음+CCTV,2017,2019-02-28,Y,서울특별시 광진구청,02-450-5100,2019-03-08
어린이-122,1,5,신양초등학교,서울특별시 광진구 광진구 능동로 42 (자양동),서울특별시 광진구 자양3동 504-7,37.534619,127.068305,3,N,N,N,경보음+CCTV,2017,2019-02-28,Y,서울특별시 광진구청,02-450-5100,2019-03-08
어린이-123,1,5,신양초등학교,서울특별시 광진구 광진구 능동로 42 (자양동),서울특별시 광진구 자양3동 504-7,37.535306,127.068638,3,N,N,N,경보음+CCTV,2017,2019-02-28,Y,서울특별시 광진구청,02-450-5100,2019-03-08
어린이-124,1,5,대원유치원,서울특별시 광진구 광진구 뚝섬로 585 (자양동),서울특별시 광진구 자양3동 520-9,37.533636,127.074877,3,N,N,N,경보음+CCTV,2017,2019-02-28,Y,서울특별시 광진구청,02-450-5100,2019-03-08
어린이-125,1,5,동자초등학교,서울특별시 광진구 뚝섬로 561,서울특별시 광진구 자양3동 524-13,37.536186,127.073562,3,N,N,N,경보음+CCTV,2017,2019-02-28,Y,서울특별시 광진구청,02-450-5100,2019-03-08
어린이-126,1,5,한일유치원,서울특별시 광진구 광진구 뚝섬로35길 16-20 (자양동),서울특별시 광진구 자양3동 536-11,37.535397,127.071382,3,N,N,N,경보음+CCTV,2017,2019-02-28,Y,서울특별시 광진구청,02-450-5100,2019-03-08
어린이-128,1,5,동자초등학교,서울특별시 광진구 광진구 뚝섬로 561 (자양동),서울특별시 광진구 자양3동 553-503,37.534594,127.071796,3,N,N,N,경보음+CCTV,2017,2019-02-28,Y,서울특별시 광진구청,02-450-5100,2019-03-08
어린이-129,1,5,신양초등학교,서울특별시 광진구 광진구 능동로6길 16 학교 정문 앞,서울특별시 광진구 자양3동 554-6,37.534421,127.068964,3,N,N,N,경보음+CCTV,2017,2019-02-28,Y,서울특별시 광진구청,02-450-5100,2019-03-08
어린이-131,1,5,으뜸어린이집,서울특별시 광진구 광진구 능동로4길 88 (자양동),서울특별시 광진구 자양3동 587-13,37.530938,127.071475,3,N,N,N,경보음+CCTV,2017,2019-02-28,Y,서울특별시 광진구청,02-450-5100,2019-03-08
어린이-132,1,5,신양초등학교,서울특별시 광진구 능동로 42 신양초교 후문입구,서울특별시 광진구 자양3동 761-1,37.534899,127.070097,3,N,N,N,경보음+CCTV,2017,2019-02-28,Y,서울특별시 광진구청,02-450-5100,2019-03-08
어린이-133,1,5,아이세계어린이집,서울특별시 광진구 광진구 동일로4길 51 (자양동),서울특별시 광진구 자양4동 53-1,37.536045,127.063575,3,N,N,N,경보음+CCTV,2017,2019-02-28,Y,서울특별시 광진구청,02-450-5100,2019-03-08
어린이-134,1,5,아이세계어린이집,서울특별시 광진구 광진구 동일로4가길 2 (자양동),서울특별시 광진구 자양4동 197-6,37.536332,127.062238,3,N,N,N,경보음+CCTV,2017,2019-02-28,Y,서울특별시 광진구청,02-450-5100,2019-03-08
어린이-137,1,5,성수아름유치원,서울특별시 광진구 광진구 뚝섬로 476 (자양동),서울특별시 광진구 자양4동 52-65,37.536743,127.06322,3,N,N,N,경보음+CCTV,2017,2019-02-28,Y,서울특별시 광진구청,02-450-5100,2019-03-08
어린이-138,1,5,정신유치원,서울특별시 광진구 광진구 뚝섬로23길 44 (자양동),서울특별시 광진구 자양4동 553-12,37.537233,127.065892,3,N,N,N,경보음+CCTV,2017,2019-02-28,Y,서울특별시 광진구청,02-450-5100,2019-03-08
어린이-140,1,5,정신유치원,서울특별시 광진구 광진구 능동로5길 17 (자양동),서울특별시 광진구 자양4동 553-9,37.536892,127.066756,3,N,N,N,경보음+CCTV,2017,2019-02-28,Y,서울특별시 광진구청,02-450-5100,2019-03-08
어린이-142,1,5,양남병설유치원,서울특별시 광진구 광진구 뚝섬로64길 71 (자양동),서울특별시 광진구 자양2동 692,37.530332,127.089192,3,N,N,N,경보음+CCTV,2017,2019-02-28,Y,서울특별시 광진구청,02-450-5100,2019-03-08
어린이-143,1,5,신자병설유치원,서울특별시 광진구 광진구 뚝섬로46길 74 (자양동),서울특별시 광진구 자양2동 811,37.529459,127.075926,3,N,N,N,경보음+CCTV,2017,2019-02-28,Y,서울특별시 광진구청,02-450-5100,2019-03-08
어린이-144,1,5,자양병설유치원,서울특별시 광진구 광진구 아차산로 326 (자양동),서울특별시 광진구 자양1동 223-1,37.537569,127.0792,3,N,N,N,경보음+CCTV,2017,2019-02-28,Y,서울특별시 광진구청,02-450-5100,2019-03-08
어린이-145,1,5,성자초등학교,서울특별시 광진구 광진구 자양로 43 (자양동),서울특별시 광진구 자양2동 677-7,37.531991,127.085635,3,N,N,N,경보음+CCTV,2017,2019-02-28,Y,서울특별시 광진구청,02-450-5100,2019-03-08
어린이-146,1,5,중광초등학교,서울특별시 광진구 광진구 긴고랑로13길 10 (중곡동),서울특별시 광진구 중곡1동 164-3,37.563217,127.08198,3,N,N,N,경보음+CCTV,2017,2019-02-28,Y,서울특별시 광진구청,02-450-5100,2019-03-08
어린이-147,1,5,중광초등학교,서울특별시 광진구 광진구 긴고랑로 51 (중곡동),서울특별시 광진구 중곡1동 164-8,37.56268,127.08206,3,N,N,N,경보음+CCTV,2017,2019-02-28,Y,서울특별시 광진구청,02-450-5100,2019-03-08
어린이-148,1,5,중광초등학교,서울특별시 광진구 광진구 능동로49길 9 (중곡동),서울특별시 광진구 중곡1동 165-18,37.564537,127.082736,3,N,N,N,경보음+CCTV,2017,2019-02-28,Y,서울특별시 광진구청,02-450-5100,2019-03-08
어린이-149,1,5,중마초등학교,서울특별시 광진구 광진구 동일로72길 34 (중곡동),서울특별시 광진구 중곡1동 233-1,37.565725,127.079554,3,N,N,N,경보음+CCTV,2017,2019-02-28,Y,서울특별시 광진구청,02-450-5100,2019-03-08
어린이-150,1,5,용마초등학교,,서울특별시 광진구 중곡2동 51-6,37.559921,127.083817,3,N,N,N,경보음+CCTV,2017,2019-02-28,Y,서울특별시 광진구청,02-450-5100,2019-03-08
어린이-151,1,5,용마초등학교,서울특별시 광진구 광진구 천호대로113길 50-4 (중곡동),서울특별시 광진구 중곡2동 53-1,37.559346,127.084172,3,N,N,N,경보음+CCTV,2017,2019-02-28,Y,서울특별시 광진구청,02-450-5100,2019-03-08
어린이-152,1,5,용곡초등학교,서울특별시 광진구 광진구 용마산로 111 (중곡동),서울특별시 광진구 중곡2동 28-7,37.563558,127.086799,3,N,N,N,경보음+CCTV,2017,2019-02-28,Y,서울특별시 광진구청,02-450-5100,2019-03-08
